[
	{
		'name' : 'De Appelier',
		'lng' : '3.7279808',
		'lat' : '51.0385525',
		'website' : 'http://www.deappelier.be',
		'street' : 'Citadellaan 47',
		'postal' : '9000',
		'city' : 'Gent',
		'phone' : '09/221.67.33',
		'mail' : 'deappelier@belgacom.net',
		'body' : 'Body. Sed ut perspiciatis unde omnis iste natus error sit voluptatem accusantium doloremque laudantium, totam rem aperiam, eaque ipsa quae ab illo inventore veritatis et quasi architecto beatae vitae dicta sunt explicabo. Nemo enim ipsam voluptatem quia voluptas sit aspernatur aut odit aut fugit, sed quia consequuntur magni dolores eos qui ratione voluptatem sequi nesciunt. Neque porro quisquam est, qui dolorem ipsum quia dolor sit amet, consectetur, adipisci velit, sed quia non numquam eius modi tempora incidunt ut labore et dolore magnam aliquam quaerat voluptatem. Ut enim ad minima veniam, quis nostrum exercitationem ullam corporis suscipit laboriosam, nisi ut aliquid ex ea commodi consequatur? Quis autem vel eum iure reprehenderit qui in ea voluptate velit esse quam nihil molestiae consequatur, vel illum qui dolorem eum fugiat quo voluptas nulla pariatur?'
	},
	{
		'name' : 'De Appelier',
		'lng' : '3.7279808',
		'lat' : '51.0385525',
		'website' : 'http://www.deappelier.be',
		'street' : 'Citadellaan 47',
		'postal' : '9000',
		'city' : 'Gent',
		'phone' : '09/221.67.33',
		'mail' : 'deappelier@belgacom.net',
		'body' : 'Elke dag een nieuwe dagschotel met diverse granen, warme groenten rauwkost, een quiche, vegetarische burger of peulvruchten. \'s Avonds ook spaghetti. Het water is gratis. Leuk tuinterras. Voor een veganistische optie eventueel op voorhand bellen.'
	},
	{
		'name' : 'Lekker GEC',
		'lng' : '3.7116116',
		'lat' : '51.0371313',
		'website' : 'http://www.lekkergec.be',
		'street' : 'Koningin Maria Hendrikaplein 6',
		'postal' : '9000',
		'city' : 'Gent',
		'phone' : '09/242.87.50',
		'mail' : 'lekkergec@yahoo.com',
		'body' : 'Dagschotel, saladebar & broodjes in zelfbediening &  naar gewicht afgerekend; bedien jezelf & tafel op eigen ritme naar eigen smaak en honger. Daarnaast doorlopend pasta\'s en soep en zoets. Bijna volledig veganistisch.'
	},
	{
		'name' : 'Pacha Mama',
		'lng' : '3.7246326',
		'lat' : '51.0471651',
		'website' : null,
		'street' : 'Jan-Baptist Guinardstraat 9',
		'postal' : '9000',
		'city' : 'Gent',
		'phone' : '09/330.33.35',
		'mail' : null,
		'body' : 'Gratis water, zonnig terras. Eten met stokjes of mes en vork. Vegan ook mogelijk.'
	},
	{
		'name' : 'Falafeltof',
		'lng' : '4.3983437',
		'lat' : '51.2198809',
		'website' : 'http://www.falafeltof.com',
		'street' : 'Hoogstraat 32',
		'postal' : '2000',
		'city' : 'Antwerpen',
		'phone' : '03/291.66.60',
		'mail' : 'info@falafeltof.com',
		'body' : null
	},
	{
		'name' : 'De Panda',
		'lng' : '3.7241211',
		'lat' : '51.0582209',
		'website' : null,
		'street' : 'Oudburg 38A',
		'postal' : '9000',
		'city' : 'Gent',
		'phone' : '09/225.07.86',
		'mail' : 'ipman@belgacom.net',
		'body' : 'Je kan elke dag proeven van een verzorgde dagschotel of à  la carte eten (op zaterdagavond enkel à  la carte). Sereen interieur, met aanpalende natuurwinkel. De Panda organiseert ook geregeld vegetarische kooklessen. Veganistisch geen probleem.'
	},
	{
		'name' : 'Tuin van Eten',
		'lng' : '3.7290914',
		'lat' : '51.0678307',
		'website' : 'http://www.restauranttuinvaneten.be',
		'street' : 'Kortrijksestesteenweg 573',
		'postal' : '9000',
		'city' : 'Gent',
		'phone' : '09/245.54.66',
		'mail' : 'ilse.blaaser@pandora.be',
		'body' : 'Dagschotel met keuze uit rijst, aardappel of frieten. Op de kaart ook: burgers , salades, pasta\'s.  \' s Avonds kan je ook kiezen voor een goed geprijsd menu ( te zien op www.restaurant.be )'
	},
	{
		'name' : 'Wakame',
		'lng' : '3.7135277',
		'lat' : '51.0376815',
		'website' : 'http://www.wakame.be',
		'street' : 'Lostraat 32-34',
		'postal' : '9000',
		'city' : 'Gent',
		'phone' : '09/221.87.35',
		'mail' : 'restaurantwakame@hotmail.com',
		'body' : null
	},
	{
		'name' : 'De Warempel',
		'lng' : '3.727112',
		'lat' : '51.0547968',
		'website' : 'http://de.warempel.be/',
		'street' : 'Zandberg 8',
		'postal' : '9000',
		'city' : 'Gent',
		'phone' : '09/224.30.62',
		'mail' : 'valerie@warempel.be',
		'body' : 'De porties zijn ruim en gevarieerd. Ook soep en nagerechtjes. Veganisten laten best iets weten op voorhand. Ook feestjes zijn hier mogelijk.'
	},
	{
		'name' : 'Avalon',
		'lng' : '3.7210391',
		'lat' : '51.057726',
		'website' : 'http://www.restaurantavalon.be',
		'street' : 'Geldmunt 32',
		'postal' : '9000',
		'city' : 'Gent',
		'phone' : '09/224.37.24',
		'mail' : 'info@restaurantavalon.be',
		'body' : 'Er wordt gekookt met biologische verantwoorde ingrediënten, dus zo lokaal mogelijk.  Elke dag kan je er terecht voor een dagverse gevarieerde schotel alsook voor pasta\'s en groententaart. Tevens kan je op het menu wekelijkse suggesties van de Chef terugvinden. Alle maaltijden zijn veganistisch.  Culinair genieten kan je tijdens de gastronomische diners. Aangenaam buitenterras tussen het groen.  Restaurant Avalon organiseert kookworkshops- en lessen.'
	},
	{
		'name' : 'Greenway',
		'lng' : '3.721663',
		'lat' : '51.0476748',
		'website' : 'http://www.greenway.be',
		'street' : 'Nederkouter 42',
		'postal' : '9000',
		'city' : 'Gent',
		'phone' : '09/269.07.69 OF 016/30.97.35',
		'mail' : 'info@greenway.be',
		'body' : 'Je kan er terecht voor een snelle burger, baga of soep, maar ook voor een iets uitgebreidere pasta of noodle-schotel. Naast de vaste kaart zijn er elke maand weer nieuwe suggesties. Lekkere desserten. Er zijn zowel vegan gerechten, suggesties als desserts. Vooral bezocht door het jonge volkje.'
	},
	{
		'name' : 'Tarte Julie',
		'lng' : '4.3535498',
		'lat' : '50.8534776',
		'website' : null,
		'street' : 'E. Jacqmainlaan 56',
		'postal' : '1000',
		'city' : 'Brussel',
		'phone' : '02/218.53.89',
		'mail' : null,
		'body' : null
	},
	{
		'name' : 'Finjan',
		'lng' : '4.392962',
		'lat' : '51.2080848',
		'website' : 'http://www.finjan.be',
		'street' : 'Graaf Van Hoornestraat 1',
		'postal' : '2000',
		'city' : 'Antwerpen',
		'phone' : '03/248.77.14',
		'mail' : 'finjan@skynet.be',
		'body' : 'In krant De Morgen uitgeroepen tot beste pittazaak van Antwerpen. Ga langs en ontdek waarom.'
	},
	{
		'name' : 'Nuova Era',
		'lng' : '4.392962',
		'lat' : '51.2080848',
		'website' : 'http://www.nuovaera.be',
		'street' : 'Graaf Van Hoornestraat 3',
		'postal' : '2000',
		'city' : 'Antwerpen',
		'phone' : '03/248.96.20',
		'mail' : 'info@nuovaera.be',
		'body' : 'Diverse vegetarische pizza\'s en pasta\'s.'
	},
	{
		'name' : 'La Loggia',
		'lng' : '4.4760105',
		'lat' : '51.0243954',
		'website' : null,
		'street' : 'Korenmarkt 37',
		'postal' : '2800',
		'city' : 'Mechelen',
		'phone' : '015/41.21.01',
		'mail' : 'laloggia@telenet.be',
		'body' : 'Italiaanse specialiteiten met naast een gewone ook een volledig vegetarische kaart. De producten zijn van biologische oorsprong.'
	},
	{
		'name' : 'Lombardia',
		'lng' : '4.4037914',
		'lat' : '51.21737',
		'website' : 'http://www.lombardia.be',
		'street' : 'Lombardenvest 78',
		'postal' : '2000',
		'city' : 'Antwerpen',
		'phone' : '03/233.68.19',
		'mail' : 'info@lombardia.be',
		'body' : 'De kaart omvat sandwiches, groenteburgers, soepen, pasta\'s, ontbijtsuggesties, shakes en juices en zelfs veganistisch ijs. Ook veggie dagschotel. Groot terras.'
	},
	{
		'name' : 'Het Warm Water',
		'lng' : '4.3480534',
		'lat' : '50.8367802',
		'website' : 'http://www.hetwarmwater.be',
		'street' : 'Vossenstraat 25',
		'postal' : '1000',
		'city' : 'Brussel',
		'phone' : '02/513.91.59',
		'mail' : 'info@hetwarmwater.be',
		'body' : null
	},
	{
		'name' : 'Bombay Inn',
		'lng' : '4.3533477',
		'lat' : '50.8486769',
		'website' : 'http://www.bombayinn.be',
		'street' : 'Greepstraat 38',
		'postal' : '1000',
		'city' : 'Brussel',
		'phone' : '02/219.59.54',
		'mail' : 'bombayinn@skynet.be',
		'body' : null
	},
	{
		'name' : 'Bio-Planet',
		'lng' : '3.6968115',
		'lat' : '51.0563887',
		'website' : 'http://www.bio-planet.be',
		'street' : 'Drongensesteenweg 134',
		'postal' : '9000',
		'city' : 'Gent',
		'phone' : '09/217.04.58',
		'mail' : 'bio-planet@bio-planet.be',
		'body' : 'Ook lekkere en royaal gevulde paninibroodjes, die je kan meenemen. Ontbijt vanaf 9u. Ook meeneem en kinderporties zijn beschikbaar.'
	},
	{
		'name' : 'Thalia',
		'lng' : '3.7269783',
		'lat' : '51.0467743',
		'website' : 'http://www.eethuis-thalia.be/',
		'street' : 'Sint-Pietersnieuwstraat 138',
		'postal' : '9000',
		'city' : 'Gent',
		'phone' : '09/224.21.82 of 0477/21.30.07',
		'mail' : null,
		'body' : 'Wegens z\'n ligging erg in trek bij het universiteitspersoneel en studenten. Het restaurant heeft allerlei salades, soepen, groententaarten en pasta\'s op de kaart en soms is de dagschotel vegetarisch.'
	},
	{
		'name' : '\'t Koekebakske',
		'lng' : '4.399278',
		'lat' : '51.2183821',
		'website' : 'https://www.facebook.com/Koekebakske',
		'street' : 'Leeuwestraat 23',
		'postal' : '2000',
		'city' : 'Antwerpen',
		'phone' : '0494/07.17.77',
		'mail' : null,
		'body' : 'Op de kaart staan onder meer quiches, lasagne, bagles en 28 heel originele pannenkoeken, waarvan er een aantal veggie zijn...  Alles wordt dagelijks vers gemaakt door het huis.'
	},
	{
		'name' : 'De Frietketel',
		'lng' : '3.7112754',
		'lat' : '51.0506569',
		'website' : null,
		'street' : 'Papegaaistraat 89',
		'postal' : '9000',
		'city' : 'Gent',
		'phone' : '09/329.40.22',
		'mail' : 'thefrietketel@hotmail.com',
		'body' : 'De veggie snacks worden apart gebakken! Ze bakken in plantaardig vet, en je kunt op je frieten de unieke veganistische tartaar- of stoverijsaus vragen. Enorme porties en niet duur. Er staan hier niet voor niets vaak lange rijen aan te schuiven!'
	},
	{
		'name' : 'Sassy\'s pizza en pastabar',
		'lng' : '2.9162695',
		'lat' : '51.2019792',
		'website' : 'http://www.sassys.be',
		'street' : 'Steensedijk 23',
		'postal' : '8400',
		'city' : 'Oostende',
		'phone' : '059/32.61.04 of 0475/90.82.56',
		'mail' : 'sassys1@msn.com',
		'body' : 'Een ruime keuze aan veggie pizza\'s en pasta\'s, ook enkele vegan gerechten. Vaak ook vegetarische suggesties. Kind- en budgetvriendelijk. Ook meeneem.'
	},
	{
		'name' : 'Water en vuur',
		'lng' : '2.8532383',
		'lat' : '51.0244082',
		'website' : 'http://www.waterenvuur.be',
		'street' : 'IJzerdijk 48',
		'postal' : '8600',
		'city' : 'Diksmuide ',
		'phone' : '0498/56.55.55',
		'mail' : 'info@waterenvuur.be',
		'body' : 'Kroket van Keiems Bloempje, salade met gefrituurde oesterzwammen, rijkelijk gevulde tortilla, ... Alle wijnen zijn bio, er zijn versgeperste vruchtensapjes, streekbiertjes (nat en straf) verkrijgbaar.\r\nBinnenruim voor 50 personen en dekterras voor 40 personen.'
	},
	{
		'name' : 'Happy Buddha',
		'lng' : '4.3535273',
		'lat' : '50.8524094',
		'website' : null,
		'street' : 'E. Jacqmainlaan 7',
		'postal' : '1000',
		'city' : 'Brussel',
		'phone' : '02/218.63.64',
		'mail' : null,
		'body' : 'Chop-Tjoi Natuur, mengeling van Chinese groenten, tofu met Chinese groenten,..'
	},
	{
		'name' : 'Komkommertijd',
		'lng' : '3.7304315',
		'lat' : '51.0532521',
		'website' : 'http://www.komkommertijd.be',
		'street' : 'Reep 14',
		'postal' : '9000',
		'city' : 'Gent',
		'phone' : '0485/73.16.17',
		'mail' : 'info@komkommertijd.be',
		'body' : 'Ook soep en dessertjes verkrijgbaar. Reserveren aan te raden. Ook meeneem.'
	},
	{
		'name' : 'Aahaar',
		'lng' : '4.4174',
		'lat' : '51.2155302',
		'website' : 'http://www.aahaar.com',
		'street' : 'Lange Herentalsestraat 23',
		'postal' : '2018',
		'city' : 'Antwerpen',
		'phone' : '03/226.00.52',
		'mail' : null,
		'body' : 'Er is geen vaste kaart maar er zijn elke dag andere gerechten. Er is ook take away, en zaterdag kan je je op voorhand opgeven wat je wil en dan maakt de kok het klaar voor je.'
	},
	{
		'name' : 'Tasty II',
		'lng' : '3.7226186',
		'lat' : '51.0558017',
		'website' : 'http://www.tastyworld.be',
		'street' : 'Hoogpoort 1',
		'postal' : '9000',
		'city' : 'Gent',
		'phone' : '09/225.74.07',
		'mail' : 'info@tastyworld.be',
		'body' : 'Tal van vegetarische broodjes met veggieburgers, smoothies, juices en shakes, ook met sojamelk. Verder soepen, salades en zelfs ontbijt. Terras op de straat.'
	},
	{
		'name' : 'Tasty I',
		'lng' : '3.7268162',
		'lat' : '51.0492864',
		'website' : 'http://www.tastyworld.be',
		'street' : 'Walpoortstraat 3',
		'postal' : '9000',
		'city' : 'Gent',
		'phone' : '09/330.75.27',
		'mail' : 'info@tastyworld.be',
		'body' : 'Tal van vegetarische broodjes met veggieburgers, smoothies, juices en shakes, ook met sojamelk. Verder soepen, salades en zelfs ontbijt.'
	},
	{
		'name' : 'Cooking@home',
		'lng' : '3.3516483',
		'lat' : '51.1256938',
		'website' : 'http://www.bio-traiteur-cooking-at-home.be',
		'street' : 'Lattenklieversstraat 145',
		'postal' : '8730',
		'city' : 'Sint-Joris (Beernem)',
		'phone' : '050/67.56.12',
		'mail' : 'cookingathome@telenet.be	',
		'body' : '100% BIO, biogarantielabel\r\nCooking@home geeft EVA-leden 5% korting'
	},
	{
		'name' : 'La Rotonda',
		'lng' : '4.7084115',
		'lat' : '50.8757123',
		'website' : 'http://www.resto-larotonda.be/',
		'street' : 'Tiensestraat 121',
		'postal' : '3000',
		'city' : 'Leuven',
		'phone' : '016 / 29 97 36',
		'mail' : null,
		'body' : 'Klassieke Italiaanse keuken met verschillende vegetarische pizza\'s en pasta\'s. Ook om mee te nemen. '
	},
	{
		'name' : 'Aperto Chiuso',
		'lng' : '3.7265336',
		'lat' : '51.0613824',
		'website' : 'https://www.facebook.com/pages/Aperto-Chiuso/124637173839?fref=ts',
		'street' : 'Sleepstraat 82',
		'postal' : '9000',
		'city' : 'Gent',
		'phone' : '09/233.72.64',
		'mail' : null,
		'body' : 'Het aanbod bestaat vooral uit verse zelfgemaakte pasta\'s, zoals tagliatelli met pesto, en slaatjes, waarvan sommige geschikt zijn voor veganisten.'
	},
	{
		'name' : 'Den Teepot',
		'lng' : '4.345013',
		'lat' : '50.8484494',
		'website' : 'http://www.bioshop.be/winkels/brussel.html',
		'street' : 'Kartuizersstraat 66',
		'postal' : '1000',
		'city' : 'Brussel',
		'phone' : '02/511.94.02',
		'mail' : 'den.teepot@gmail.com',
		'body' : 'Dagmenu (soep, schotel, dessert)\r\nMet natuurvoedingswinkel Bioshop'
	},
	{
		'name' : 'La Tsampa',
		'lng' : '4.3618257',
		'lat' : '50.8269861',
		'website' : 'http://www.tsampa.be',
		'street' : 'Livornostraat 109',
		'postal' : '1050',
		'city' : 'Elsene',
		'phone' : '02/647.03.67',
		'mail' : null,
		'body' : 'Ook meeneem'
	},
	{
		'name' : 'Lukemieke',
		'lng' : '4.7030228',
		'lat' : '50.8748908',
		'website' : 'http://www.lukemieke.be',
		'street' : 'Vlamingenstraat 55',
		'postal' : '3000',
		'city' : 'Leuven',
		'phone' : '016/22.97.05',
		'mail' : null,
		'body' : 'Er zijn altijd twee dagschotels waarvan één ovenschotel, dagsoep, en verschillende voorgerechten. Zelfgebakken taarten. In de zomer kan je ook buiten eten in de stadstuin. Lukemieke is ook traiteur voor feesten en recepties. '
	},
	{
		'name' : 'Juliette',
		'lng' : '4.400309',
		'lat' : '51.2167831',
		'website' : 'http://www.debroersvanjulienne.be/',
		'street' : 'Ijzerenwaag 4',
		'postal' : '2000',
		'city' : 'Antwerpen',
		'phone' : '03/232.02.03',
		'mail' : 'broersvanjulienne@skynet.be',
		'body' : 'Bijna volledig vegetarisch restaurant met nog enkele visschotels op de kaart. Uitgebreide keuze aan quiches, stoofpotjes, ovenschotels, salades, en een dagsuggestie. Vegan en glutenvrij is mogelijk. Ook traiteur en meeneem. Terras in de tuin.\r\nEr worden hier ook kooklessen gegeven.'
	},
	{
		'name' : 'Falafel Beni',
		'lng' : '4.4183717',
		'lat' : '51.2054913',
		'website' : 'http://www.ecoplan.be/falafel-beni',
		'street' : 'Lange Leemstraat 188',
		'postal' : '2000',
		'city' : 'Antwerpen',
		'phone' : '03/218.82.11',
		'mail' : null,
		'body' : 'O.a. falafel met humus, bonensoep, ratatouille, auberginesla, bladerdeeg met champignons, spinazie ...'
	},
	{
		'name' : 'Overvloed',
		'lng' : '4.430893',
		'lat' : '51.2072823',
		'website' : 'http://www.restaurantovervloed.be',
		'street' : 'Dageraadplaats 8',
		'postal' : '2018',
		'city' : 'Antwerpen',
		'phone' : '03/235.52.41',
		'mail' : null,
		'body' : 'De kaart is voor de helft vegetarisch. Verschillende suggesties en ook een verrasingsmenu. Veganistisch is mogelijk. Ook een aantal kinderschotels en een wekelijks wisselende dagschotel. '
	},
	{
		'name' : 'Dolma',
		'lng' : '4.3704909',
		'lat' : '50.8287018',
		'website' : 'http://www.dolma.be',
		'street' : 'Elsense Steenweg 329',
		'postal' : '1050',
		'city' : 'Brussel',
		'phone' : '02/649.89.81',
		'mail' : 'info@dolma.be',
		'body' : 'Tibetaans veggie buffet à  volonté\r\nMooi, warm decor'
	},
	{
		'name' : 'De Levensboom',
		'lng' : '5.3330662',
		'lat' : '50.9285341',
		'website' : null,
		'street' : 'Leopoldplein 44',
		'postal' : '3500',
		'city' : 'Hasselt',
		'phone' : '011/22.64.00',
		'mail' : null,
		'body' : 'Elke dag een nieuwe dagschotel en een aantal vaste gerechten; goede keuze voor vegans. Mooie selectie aan huisbereide nagerechten, waaronder doorgaans een aantal veganistische. Tuinterras. Alle ingrediënten zijn bio. '
	},
	{
		'name' : 'D\'entreprise',
		'lng' : '4.7007444',
		'lat' : '50.8783161',
		'website' : 'http://www.dentreprise.eu/',
		'street' : 'Naamsestraat 18',
		'postal' : '3000',
		'city' : 'Leuven',
		'phone' : '0478 311 467',
		'mail' : 'info@dentreprise.be',
		'body' : 'Verschillende vegetarische hoofdgerechten en volledig plantaardige wok.'
	},
	{
		'name' : 'OONA Asian Restaurant en Bar',
		'lng' : '4.6993925',
		'lat' : '50.8788129',
		'website' : 'http://www.restro-oona.be/',
		'street' : 'Parijsstraat 23',
		'postal' : '3000',
		'city' : 'Leuven',
		'phone' : '016 88 07 93',
		'mail' : null,
		'body' : 'Oriëntaalse keuken met Thaise, Nepalese en Indische curry\'s en wokgerechten. '
	},
	{
		'name' : 'Wereldcafé.coop',
		'lng' : '4.6979178',
		'lat' : '50.8783887',
		'website' : 'http://www.wereldcafe.be/',
		'street' : 'Joris Helleputteplein 2',
		'postal' : '3000',
		'city' : 'Leuven ',
		'phone' : '0468/17.82.72 ',
		'mail' : null,
		'body' : 'Rijkelijk belegde boterhammen met feta, humus en gegrilde groenten. Er is rauwkost met dressing, soep en pasta. Hier eet en drink je lekkers van dichtbij of veraf, altijd (h)eerlijk en duurzaam. Het is een coöperatie gerund door aandeelhouders en vrijwilligers, met de enthousiaste hulp van een aantal betaalde medewerkers. Alle winst die wordt gemaakt, wordt geherinvesteerd in sociale projecten dichtbij of in een ver buitenland. '
	},
	{
		'name' : 'Restaurant & Bar Lof',
		'lng' : '3.7152251',
		'lat' : '51.0546729',
		'website' : 'http://www.restaurantlof.be',
		'street' : 'Hoogstraat 36',
		'postal' : '9000',
		'city' : 'Gent',
		'phone' : '09/235.40.71',
		'mail' : 'info@restaurantlof.be ',
		'body' : 'De Franse keuken werd in een hedendaags kleedje gestoken, lichter en met een nationaal tintje. Bij mooi weer kan je genieten van het zonnig terras.\r\n'
	},
	{
		'name' : 'Mo-Mo',
		'lng' : '4.3592725',
		'lat' : '50.8280033',
		'website' : 'http://mo-mo.eu/',
		'street' : 'Rue Defacqzstraat 27',
		'postal' : '1050',
		'city' : 'Elsene',
		'phone' : '02/522.09.68',
		'mail' : null,
		'body' : 'Heerlijke lunch en avondmaaltijden bestaande uit Tibetaanse momos, dumplings, gevuld met groenten en tofu of groenten en kaas. Een menu bestaat uit dumplings, soep en gestoomde groenten. Ze werken vooral met duurzame leveranciers en producten (bio). Bel een dag op voorhand als je volledig plantaardig wil eten. Ook om mee te nemen. \r\n'
	},
	{
		'name' : 'Café Panisse',
		'lng' : '4.357059',
		'lat' : '50.8239512',
		'website' : 'http://www.cafepanisse.com/',
		'street' : 'Rue du Tabellion  31',
		'postal' : '1050',
		'city' : 'Elsene',
		'phone' : '02/539.39.10',
		'mail' : 'cafepanisse@skynet.be',
		'body' : 'Zuiderse kaart met salades, pasta, pizza\'s. Je kan je eigen overheerlijke pizza met veel groenten samenstellen.\r\n'
	},
	{
		'name' : 'No. 61 Bagels & Tapas',
		'lng' : '3.2676534',
		'lat' : '50.8254831',
		'website' : 'http://www.no61.be',
		'street' : 'Doorniksestraat 61',
		'postal' : '8500',
		'city' : 'Kortrijk',
		'phone' : '056/51.99.92',
		'mail' : 'info@No61.be',
		'body' : 'De filosofie van de uitbaatsters is simpel maar gemeend: jou blij maken met wat ze verkopen en bereiden, rekening houdend met specifieke wensen waar mogelijk.'
	},
	{
		'name' : 'Frituur \'t Hoekske',
		'lng' : '3.8787222',
		'lat' : '51.0048378',
		'website' : null,
		'street' : 'Koningin Astridlaan 54',
		'postal' : '9230',
		'city' : 'Wetteren',
		'phone' : '09/366.69.66',
		'mail' : null,
		'body' : null
	},
	{
		'name' : 'De Zuidkant',
		'lng' : '3.7536243',
		'lat' : '51.0404084',
		'website' : 'http://www.dezuidkant.be',
		'street' : 'Frederik Burvenichstraat 156',
		'postal' : '9050',
		'city' : 'Gentbrugge ',
		'phone' : '09/223.42.35',
		'mail' : 'dezuidkant@gmail.com',
		'body' : 'Veggie restaurant waar Griet & Ellen serveren wat ze zelf graag eten: biologisch, gezond, zonder vlees, lekker en elke dag anders. Bij reservatie vermelden als je 100 % plantaardig wil. '
	},
	{
		'name' : 'Hot Falafel',
		'lng' : '4.472751',
		'lat' : '51.020046',
		'website' : 'https://www.facebook.com/HotFalafelGent',
		'street' : 'Brusselsesteenweg 17a',
		'postal' : '9000',
		'city' : 'Gent',
		'phone' : '0477/17.62.05',
		'mail' : null,
		'body' : 'Midden-Oosterse keuken met ruim aanbod vegetarische snacks, zoals broodje falafel, babaghanoush en linzensoep. De veggiemix is een aanrader. Ook om mee te nemen. '
	},
	{
		'name' : 'Native',
		'lng' : '4.3966734',
		'lat' : '51.21718',
		'website' : 'http://www.nativefood.be',
		'street' : 'Muntstraat 8',
		'postal' : '2000',
		'city' : 'Antwerpen',
		'phone' : '0478/40.07.11',
		'mail' : 'ben@nativefood.be',
		'body' : 'Hier zetten ze eerlijke, gezonde voeding op de kaart met groenten in de hoofdrol.'
	},
	{
		'name' : 'Café Bartilia',
		'lng' : '4.4048605',
		'lat' : '51.2250394',
		'website' : 'https://www.facebook.com/CafeBartilia',
		'street' : 'Falconplein 43',
		'postal' : '2000',
		'city' : 'Antwerpen',
		'phone' : '0484/15.79.95',
		'mail' : 'valerie.pas@gmail.com',
		'body' : 'Hier kun je je honger stillen met een dagelijks wisselend aanbod van broodjes, soep, seitan- en andere schotels.\r\n'
	},
	{
		'name' : 'Bar d\'Office',
		'lng' : '4.423438',
		'lat' : '51.2195731',
		'website' : 'http://www.winkelhaak.be/',
		'street' : 'Dambruggestraat 29',
		'postal' : '2060',
		'city' : 'Antwerpen',
		'phone' : '03/227.37.31',
		'mail' : 'klara.desmedt@winkelhaak.be',
		'body' : '\'s Middags wordt een eigenwijs veggie buffet aangeboden, vers en steeds met seizoensgroenten.\r\n'
	},
	{
		'name' : 'Bar Buenos Aires',
		'lng' : '4.4033621',
		'lat' : '51.2236265',
		'website' : 'https://barbuenosairesantwerp.wordpress.com/',
		'street' : 'Koepoortbrug 3',
		'postal' : '2000',
		'city' : 'Antwerpen ',
		'phone' : '03 501 63 60',
		'mail' : 'proostphilippe@hotmail.com',
		'body' : 'Op de kaart staan 4 vaste empanadas, waarvan 2 veggie. Verder is er elke week een veggie suggestie. Afhalen of levering aan huis. '
	},
	{
		'name' : 'Casa di Batavia',
		'lng' : '3.7312746',
		'lat' : '51.0418052',
		'website' : 'http://www.casadibatavia.com',
		'street' : 'François Benardstraat 80',
		'postal' : '9000',
		'city' : 'Gent',
		'phone' : '09/324.33.66',
		'mail' : 'info@casadibatavia.com',
		'body' : 'Authenticiteit, versheid, presentatie en kwaliteit staan centraal. Catering op aanvraag. '
	},
	{
		'name' : 'De Rosenobel',
		'lng' : '4.4004473',
		'lat' : '51.2206105',
		'website' : 'http://www.rosenobel.be/',
		'street' : 'Blauwmoezelstraat 2',
		'postal' : '2000',
		'city' : 'Antwerpen ',
		'phone' : '03/707.13.87',
		'mail' : 'info@rosenobel.be',
		'body' : 'Op het menu staan onder andere enkele veggie toasts, huisbereide strudel, veggie vol-au-vent en tagliatelli.'
	},
	{
		'name' : 'Bluesette',
		'lng' : '3.7238707',
		'lat' : '51.0447487',
		'website' : 'http://www.eetcafebluesette.be',
		'street' : 'Sint-Kwintensberg 85',
		'postal' : '9000',
		'city' : 'Gent',
		'phone' : '09/233.71.74',
		'mail' : 'eetcafebluesette@gmail.com',
		'body' : null
	},
	{
		'name' : 'De Brooderie',
		'lng' : '3.7202619',
		'lat' : '51.0557151',
		'website' : 'http://www.brooderie.be',
		'street' : 'Jan Breydelstraat 8',
		'postal' : '9000',
		'city' : 'Gent',
		'phone' : '09/225.06.23',
		'mail' : 'hilde@brooderie.be',
		'body' : null
	},
	{
		'name' : 'Ette-Ibibio',
		'lng' : '3.725284',
		'lat' : '51.0338963',
		'website' : 'http://www.etteibibio.com/',
		'street' : 'Zwijnaardsesteenweg 104',
		'postal' : '9000',
		'city' : 'Gent',
		'phone' : '0486/55.25.02 ',
		'mail' : 'ette.ibibio@telenet.be',
		'body' : 'Eten voor het goede doel dus, van lekkere Afrikaanse schotels met bijvoorbeeld bakbanaan en fufu. De kok is best bereid om je iets speciaals te maken - in dat geval ben je beter niet gehaast. Live jamsessies op donderdag.'
	},
	{
		'name' : 'Faki',
		'lng' : '3.7273479',
		'lat' : '51.0620215',
		'website' : null,
		'street' : 'Sleepstraat 112',
		'postal' : '9000',
		'city' : 'Gent',
		'phone' : '09/233.13.21',
		'mail' : 'tolgaedeer@hotmail.com',
		'body' : null
	},
	{
		'name' : 'Gulhan',
		'lng' : '3.7261607',
		'lat' : '51.0610622',
		'website' : null,
		'street' : 'Sleepstraat 70',
		'postal' : '9000',
		'city' : 'Gent',
		'phone' : '09/233.51.24',
		'mail' : null,
		'body' : null
	},
	{
		'name' : 'Il Cortile',
		'lng' : '3.7231276',
		'lat' : '51.0572289',
		'website' : 'http://sites.resto.com/ilcortile/',
		'street' : 'Kraanlei 53',
		'postal' : '9000',
		'city' : 'Gent',
		'phone' : '09/234.27.41',
		'mail' : null,
		'body' : null
	},
	{
		'name' : 'Il Mezzogiorno',
		'lng' : '3.7298543',
		'lat' : '51.0593978',
		'website' : 'http://www.ilmezzogiorno.be',
		'street' : 'Baudelokaai 17',
		'postal' : '9000',
		'city' : 'Gent',
		'phone' : '09/224.33.29',
		'mail' : null,
		'body' : 'De kaart verandert met de seizoenen en elke avond is er een andere suggestie. Er staan altijd wel enkele vegetarische gerechten op het menu. Je kunt ook kiezen voor een vegetarisch degustatiemenu. Veganistische gerechten zijn er niet altijd, maar als er vraag naar is kunnen ze wel iets bereiden in overleg met de keuken.'
	},
	{
		'name' : 'Restaurant Ateljee',
		'lng' : '3.7415497',
		'lat' : '51.0440091',
		'website' : 'http://www.het-restaurant.be/NL/index',
		'street' : 'Vlaamsekaai 10',
		'postal' : '9000',
		'city' : 'Gent',
		'phone' : '09/269.25.51',
		'mail' : 'frank.de.graeve@ateljeevzw.be',
		'body' : null
	},
	{
		'name' : 'De Kastart',
		'lng' : '3.7197332',
		'lat' : '51.0520604',
		'website' : 'http://www.dekastart.com',
		'street' : 'Onderbergen 42',
		'postal' : '9000',
		'city' : 'Gent',
		'phone' : '09/224.36.27',
		'mail' : null,
		'body' : 'De befaamde spaghetti Kastart bestaat ook in veggie versie - in S, M en L versie. Je kunt zelfs de saus meenemen en de pasta thuis zelf koken. Er zijn ook salades.'
	},
	{
		'name' : 'La Malcontenta',
		'lng' : '3.7217206',
		'lat' : '51.0575601',
		'website' : 'http://www.lamalcontenta.be',
		'street' : 'Haringsteeg 7 - 9',
		'postal' : '9000',
		'city' : 'Gent',
		'phone' : '09/224.18.01',
		'mail' : 'info@lamalcontenta.be',
		'body' : null
	},
	{
		'name' : 'Eat Love Pizza',
		'lng' : '3.7203152',
		'lat' : '51.051712',
		'website' : 'http://www.eatlove.be/',
		'street' : 'Ajuinlei 10a',
		'postal' : '9000',
		'city' : 'Gent',
		'phone' : '0479 879 387',
		'mail' : null,
		'body' : null
	},
	{
		'name' : 'Mosquito Coast',
		'lng' : '3.7232026',
		'lat' : '51.0553629',
		'website' : 'http://www.mosquitocoast.be',
		'street' : 'Hoogpoort 28',
		'postal' : '9000',
		'city' : 'Gent',
		'phone' : '09/224.37.20',
		'mail' : 'info@mosquitocoast.be',
		'body' : 'Wekelijks één vegetarische suggestie, met daarnaast noedelsoep, salades, focaccia, tapas. Er gaan ook geregeld voorstellingen door rond allerlei reistopics. Op donderdag is het hier veggiedag. Er zijn ook een aantal vegan mogelijkheden.'
	},
	{
		'name' : 'Orchidee',
		'lng' : '3.7310001',
		'lat' : '51.0491541',
		'website' : 'http://www.restaurantdeorchidee.be',
		'street' : 'Vlaanderenstraat 105',
		'postal' : '9000',
		'city' : 'Gent',
		'phone' : '09/224.40.49',
		'mail' : 'info@restaurantdeorchidee.be',
		'body' : 'Veggies gaan voor tofu bij de maaltijd. Zeer democratische prijzen. Vegan ook mogelijk, vraag ernaar!'
	},
	{
		'name' : 'Petrus',
		'lng' : '3.7290914',
		'lat' : '51.0678307',
		'website' : 'http://www.petruscafe.be',
		'street' : 'Sint-Amandsstraat 15',
		'postal' : '9000',
		'city' : 'Gent',
		'phone' : '0497/39.01.08',
		'mail' : 'info@petruscafe.be',
		'body' : null
	},
	{
		'name' : 'Ocean Garden',
		'lng' : '3.7222403',
		'lat' : '51.0281472',
		'website' : 'http://www.oceangarden.byethost3.com/',
		'street' : 'Zwijnaardsesteenweg 399',
		'postal' : '9000',
		'city' : 'Gent',
		'phone' : '09/222.72.74',
		'mail' : null,
		'body' : 'Een zestal vegetarisch opties, die geserveerd worden met gebakken rijst. '
	},
	{
		'name' : 'Spice of India',
		'lng' : '3.7260956',
		'lat' : '51.060918',
		'website' : null,
		'street' : 'Sleepstraat 66',
		'postal' : '9000',
		'city' : 'Gent',
		'phone' : '09/224.11.91',
		'mail' : null,
		'body' : '12 euro voor een hoofdschotel,rijst en salade inbegrepen. Onder meer Mix Groenten, Palik Dal (spinazie en linzen), Tarka Dal, okra, palak paneer, vegetarische samosa.'
	},
	{
		'name' : 'Riz d\'Or',
		'lng' : '3.7182236',
		'lat' : '51.0539519',
		'website' : null,
		'street' : 'Sint-Michielsstraat 10',
		'postal' : '9000',
		'city' : 'Gent',
		'phone' : '09/233.26.43',
		'mail' : null,
		'body' : ' Onder andere tofu met seizoensgroenten'
	},
	{
		'name' : 'Tartino',
		'lng' : '3.7210903',
		'lat' : '51.0524481',
		'website' : null,
		'street' : 'Predikherenlei 25',
		'postal' : '9000',
		'city' : 'Gent',
		'phone' : '09/330.49.38',
		'mail' : null,
		'body' : 'Enkele vegetarische broodjes. Tartino verwerkt veel bio-producten en niet verkochte voedingsmiddelen worden op het einde van de dag aan een organisatie voor kansarmen gegeven.'
	},
	{
		'name' : 'Twilight Eetcafé',
		'lng' : '3.7219287',
		'lat' : '51.0551596',
		'website' : 'http://www.eetcafe-twilight.be',
		'street' : 'Korenmarkt 36',
		'postal' : '9000',
		'city' : 'Gent',
		'phone' : '09/224.09.95',
		'mail' : 'info@eetcafe-twilight.be',
		'body' : 'Een rijstschotel, twee pasta\'s, een lasagne en een salade.'
	},
	{
		'name' : 'De Bospaddestoel',
		'lng' : '5.0281819',
		'lat' : '51.2476184',
		'website' : null,
		'street' : 'Beverdonk 1',
		'postal' : '2470',
		'city' : 'Retie',
		'phone' : '014/375061',
		'mail' : null,
		'body' : null
	},
	{
		'name' : 'Zotte Morgen',
		'lng' : '4.9610365',
		'lat' : '51.1640035',
		'website' : 'http://www.zottemorgen.be',
		'street' : 'Larumseweg 103',
		'postal' : '2440',
		'city' : 'Geel',
		'phone' : '014/59.41.23',
		'mail' : null,
		'body' : 'Pasta\'s, slaatjes'
	},
	{
		'name' : 'De Kruimel',
		'lng' : '5.0689695',
		'lat' : '51.0876091',
		'website' : 'http://www.dekruimel-vorst.be',
		'street' : 'Dikstraat 3',
		'postal' : '2430',
		'city' : 'Vorst, Kempen',
		'phone' : '013/66.57.04',
		'mail' : 'info@dekruimel-vorst.be',
		'body' : null
	},
	{
		'name' : 'Wang Jiang',
		'lng' : '5.0768682',
		'lat' : '51.1300117',
		'website' : null,
		'street' : 'Schoolstraat 14',
		'postal' : '2450',
		'city' : 'Meerhout',
		'phone' : '014/303509',
		'mail' : null,
		'body' : null
	},
	{
		'name' : 'Prepareeke',
		'lng' : '4.988584',
		'lat' : '51.1679401',
		'website' : null,
		'street' : 'Rozendaal 4',
		'postal' : '2440',
		'city' : 'Geel',
		'phone' : '014/589975',
		'mail' : null,
		'body' : null
	},
	{
		'name' : 'Aba-jour',
		'lng' : '3.723986',
		'lat' : '51.0580384',
		'website' : 'http://www.abajour-gent.com',
		'street' : 'Oudburg 20',
		'postal' : '9000',
		'city' : 'Gent',
		'phone' : '09/234.07.29',
		'mail' : 'info@abajour-gent.be',
		'body' : 'Smullen tot in de late uurtjes van penne, ravioli of salades. Uitgebreide cocktail- en aperitiefkaart. Ook traiteurdienst. Herman Brusselmans wordt hier wel eens gesignaleerd. Reservatie aangeraden in het weekend. Voor een 100% plantaardige maaltijd, best op voorhand bellen.'
	},
	{
		'name' : 'Moeder de Gans',
		'lng' : '5.8762182',
		'lat' : '50.751458',
		'website' : 'http://www.moederdegans.be',
		'street' : 'Teuven-dorp 60',
		'postal' : '3793',
		'city' : 'Teuven',
		'phone' : '04.381.22.85',
		'mail' : 'moeder@degans.be',
		'body' : 'Sommige produkten zijn bio en van eigen teelt'
	},
	{
		'name' : 'Bhavani',
		'lng' : '3.22322',
		'lat' : '51.2065067',
		'website' : 'http://www.bhavani.be',
		'street' : 'Simon Stevenplein 5',
		'postal' : '8000',
		'city' : 'Brugge',
		'phone' : '050/33.90.25',
		'mail' : 'info@bhavani.be',
		'body' : 'Van ma. - vrij.: lunch en diner aan 18,20 €. Weekendmenu\'s (voorgerecht-hoofdgerecht-dessert-thee) aan 34 €\r\nKortingen voor groepen vanaf 15 mensen\r\nOok meeneem'
	},
	{
		'name' : 'De Bron',
		'lng' : '3.2266508',
		'lat' : '51.2020263',
		'website' : 'http://www.eethuisdebron.be',
		'street' : 'Katelijnestraat 82',
		'postal' : '8000',
		'city' : 'Brugge',
		'phone' : '050/33.45.26',
		'mail' : 'contact@eethuisdebron.be',
		'body' : 'Eén dagschotel in verschillende maten, soep, verschillende desserts\r\nOok meeneem, maar eerst bellen. Als je het helemaal vegan wil, laten weten bij de bestelling.'
	},
	{
		'name' : 'Lotus',
		'lng' : '3.22656',
		'lat' : '51.2098593',
		'website' : 'http://www.lotus-brugge.be',
		'street' : 'Wapenmakerstraat 5',
		'postal' : '8000',
		'city' : 'Brugge',
		'phone' : '050/33.10.78',
		'mail' : null,
		'body' : 'Voor een vegan menu één dag op voorhand bestellen'
	},
	{
		'name' : 'De Kleine Prins',
		'lng' : '3.8131303',
		'lat' : '50.8690946',
		'website' : null,
		'street' : 'Stationsstraat 33',
		'postal' : '9620',
		'city' : 'Zottegem',
		'phone' : '09.361.35.02',
		'mail' : null,
		'body' : 'Dagelijks is er één vegetarische schotel voorzien. Gebruik van biologische ingrediënten. '
	},
	{
		'name' : 'The Worldkitchen',
		'lng' : '4.7180809',
		'lat' : '50.9071721',
		'website' : 'http://www.worldkitchen.be',
		'street' : 'Wilselsesteenweg 321',
		'postal' : '3010',
		'city' : 'Kessel-Lo',
		'phone' : '016/44.41.01',
		'mail' : null,
		'body' : 'Op verzoek kan er ook veganistisch gekookt worden. Het restaurant is gevestigd in een oude boerderij en is ingericht met Keltische, Afrikaanse en Aziatische kunst. Je kunt er aan houten tafeltjes zitten, maar er is ook een ruimte waar je op kussens op de vloer kunt plaatsnemen. Deze ruimte is uitsluitend bestemd voor niet-rokers. Reserveren vanaf 10 personen op 0486/10.67.92.'
	},
	{
		'name' : 'Quicherie Patiron',
		'lng' : '3.7249369',
		'lat' : '51.059594',
		'website' : 'http://www.patiron.be',
		'street' : 'Sluizeken 30',
		'postal' : '9000',
		'city' : 'Gent',
		'phone' : '09/233.45.87',
		'mail' : null,
		'body' : 'Ruime keuze in vegetarische groententaarten geserveerd met of zonder slaatje. Verder op het menu ook soepen, dagelijks wisselende maaltijdsalade (soep en maaltijdsalade zijn doorgaans vegan). Ook de dessertjes zijn huisgemaakt. Quiches, soepen, salades en taartjes kunnen meegenomen worden.'
	},
	{
		'name' : 'Nam Fong',
		'lng' : '4.4661244',
		'lat' : '51.2229937',
		'website' : 'http://www.namfong.be',
		'street' : 'Boshovestraat 46-48',
		'postal' : '2100',
		'city' : 'Deurne',
		'phone' : '03/3248619',
		'mail' : null,
		'body' : ' Opties met tofu en groenten'
	},
	{
		'name' : 'Arcadi',
		'lng' : '4.3558339',
		'lat' : '50.8484424',
		'website' : null,
		'street' : 'Arenbergstraat 1b',
		'postal' : '1000',
		'city' : 'Brussel',
		'phone' : '02/511.33.43',
		'mail' : null,
		'body' : 'Lekkere groentetaarten en pasta\'s'
	},
	{
		'name' : 'Hémisphères',
		'lng' : '4.355379',
		'lat' : '50.849829',
		'website' : 'http://www.hemispheres-resto.be/#restaurant',
		'street' : 'Leopoldstraat 29',
		'postal' : '1000',
		'city' : 'Brussel',
		'phone' : '02/513.93.70',
		'mail' : null,
		'body' : null
	},
	{
		'name' : 'Elim',
		'lng' : '3.6886427',
		'lat' : '50.8383221',
		'website' : null,
		'street' : 'Dorpstraat 30',
		'postal' : '9667',
		'city' : 'Sint-Maria-Horebeke',
		'phone' : '055/45.63.69',
		'mail' : null,
		'body' : null
	},
	{
		'name' : 'Nectar',
		'lng' : '3.2715409',
		'lat' : '50.8270336',
		'website' : null,
		'street' : 'Sint Jansstraat 17',
		'postal' : '8500',
		'city' : 'Kortrijk',
		'phone' : '056/22.79.69',
		'mail' : null,
		'body' : 'meeneem mogelijk'
	},
	{
		'name' : 'De Graankorrel',
		'lng' : '2.9166664',
		'lat' : '51.2219564',
		'website' : 'http://graankorrel-oostende.be',
		'street' : 'Edith Cavellstraat 86',
		'postal' : '8400',
		'city' : 'Oostende',
		'phone' : '059/80.33.76  (tijdens de openingsuren) of op  GSM 0473 97 77 44',
		'mail' : 'degraankorrel@nazar.be',
		'body' : 'Dagschotel 12.20€ groot 13.20€ . De desserts zijn vegan en zonder suiker. Ook meeneemschotels mogelijk.'
	},
	{
		'name' : 'Grenoble',
		'lng' : '4.14237',
		'lat' : '51.1616423',
		'website' : 'http://www.grenoble.be',
		'street' : 'Kokkelbeekstraat 34',
		'postal' : '9100',
		'city' : 'Sint-Niklaas',
		'phone' : '03/296.30.10',
		'mail' : null,
		'body' : null
	},
	{
		'name' : 'Bar Italia',
		'lng' : '4.3942598',
		'lat' : '51.2099176',
		'website' : 'http://www.restobaritalia.be',
		'street' : 'Graaf Van Egmontstraat 59',
		'postal' : '2000',
		'city' : 'Antwerpen',
		'phone' : '03/216.17.48',
		'mail' : null,
		'body' : null
	},
	{
		'name' : 'Bazilikum',
		'lng' : null,
		'lat' : null,
		'website' : null,
		'street' : null,
		'postal' : null,
		'city' : null,
		'phone' : '03/216.28.69',
		'mail' : 'frankjan@bazilikum.be',
		'body' : 'Er is steeds een suggestie voor een vegetarische voor- en hoofdgerecht, met daarnaast nog andere gerechten op de kaart. Gezellig en stijlvol kader. '
	},
	{
		'name' : 'Mai Thai',
		'lng' : '4.3968362',
		'lat' : '51.2199059',
		'website' : 'http://www.mai-thai.be',
		'street' : 'Suikerrui Z6',
		'postal' : '2000',
		'city' : 'Antwerpen',
		'phone' : '03/225.16.87',
		'mail' : 'info@mai-thai.be',
		'body' : ' Vier veggie hoofdgerechten. Onder andere Kang noppakaw: verse groenten in groene curry met kokosmelk en basilicum. Opgediend in een aarden potje met een theelichtje eronder. '
	},
	{
		'name' : 'De Confiance',
		'lng' : '4.398546',
		'lat' : '51.2207809',
		'website' : 'http://www.seetiz.be/nl/restaurants/antwerp/5061-de_confiance',
		'street' : 'Suikerrui 26',
		'postal' : '2000',
		'city' : 'Antwerpen',
		'phone' : '03/232.24.34',
		'mail' : null,
		'body' : 'Gevarieerde groenteschotel (€ 7), gevulde aubergine (€ 7), pasta (€ 7).'
	},
	{
		'name' : 'Caramba',
		'lng' : '4.402192',
		'lat' : '51.2210723',
		'website' : 'http://www.restaurant-caramba.be/',
		'street' : 'Kaasrui 8',
		'postal' : '2000',
		'city' : 'Antwerpen',
		'phone' : '03/231.46.56',
		'mail' : null,
		'body' : 'De gekende klassiekers: guacamole (€ 4.70);  burrito met bonen en groenten (€ 11.50); pastei van maïs en pittige kruiden (€ 11.50); enchilada kaas; taco met guacamole; uiensoep; quesadilla; nachos met kaas ...'
	},
	{
		'name' : 'Pasta Hippo',
		'lng' : '4.3999591',
		'lat' : '51.2199949',
		'website' : 'http://www.pasta-hippo-vino.be',
		'street' : 'Pelgrimstraat 1-3',
		'postal' : '2000',
		'city' : 'Antwerpen',
		'phone' : '03/213.16.86',
		'mail' : 'info@pasta-hippo-vino.be',
		'body' : 'Grote keuze aan veggie pasta\'s dus, waaronder ravioli met courgette; een gratin van venkel; lasagne; pasta met tomaatcarpaccio ... Geregeld is hier salsa of jazzmuziek te horen op de achtergrond. '
	},
	{
		'name' : 'Mama\'s Garden',
		'lng' : '4.4003481',
		'lat' : '51.2197588',
		'website' : 'http://www.mamasgarden.be',
		'street' : 'Oude Koornmarkt 41-43',
		'postal' : '2000',
		'city' : 'Antwerpen',
		'phone' : '03/233.06.18',
		'mail' : 'info@mamasgarden.be',
		'body' : 'Er zijn een dertigtal vegetarische opties met humus en falafel. De sausjes komen in aparte potjes.'
	},
	{
		'name' : 'Buza',
		'lng' : '4.3996569',
		'lat' : '51.2203237',
		'website' : null,
		'street' : 'Oude Koornmarkt 22',
		'postal' : '2000',
		'city' : 'Antwerpen',
		'phone' : '03/707.11.07 ',
		'mail' : null,
		'body' : null
	},
	{
		'name' : 'Il Pastaiolo',
		'lng' : '4.4044297',
		'lat' : '51.2179329',
		'website' : 'http://www.ilpastaiolo.be',
		'street' : 'Wiegstraat 18',
		'postal' : '2000',
		'city' : 'Antwerpen',
		'phone' : '03/233.86.31',
		'mail' : 'info@ilpastaiolo.be',
		'body' : null
	},
	{
		'name' : 'Lunchbox',
		'lng' : '4.4092386',
		'lat' : '51.214135',
		'website' : 'http://www.lunchbox.be',
		'street' : 'Nieuwstad 8-10',
		'postal' : '2000',
		'city' : 'Antwerpen',
		'phone' : '03/231.04.79',
		'mail' : 'info@lunchbox.be',
		'body' : 'Onder andere salades, soep, focaccia\'s, veggieburgers, pasta\'s en groentetaarten.  Ook meeneem. '
	},
	{
		'name' : 'Garden of India',
		'lng' : '4.4003167',
		'lat' : '51.2191128',
		'website' : 'http://www.gardenofindia.be',
		'street' : 'Oude Koornmarkt 60',
		'postal' : '2000',
		'city' : 'Antwerpen',
		'phone' : '03/226.43.42',
		'mail' : null,
		'body' : 'Op de kaart staan onder meer een groentenbiriani, vegetarische thali en een vegetarisch menu voor twee personen. '
	},
	{
		'name' : 'Kom Sjee Twa',
		'lng' : '4.4297739',
		'lat' : '51.2087193',
		'website' : null,
		'street' : 'Walvisstraat 1',
		'postal' : '2018',
		'city' : 'Antwerpen',
		'phone' : '03/236.86.16',
		'mail' : null,
		'body' : null
	},
	{
		'name' : 'Amon',
		'lng' : '4.4296569',
		'lat' : '51.2070261',
		'website' : null,
		'street' : 'Dageraadplaats 27',
		'postal' : '2018',
		'city' : 'Antwerpen',
		'phone' : '03/2721541',
		'mail' : null,
		'body' : 'Voor de veggie die het Antwerpse nachtleven onderzoekt. Zo\'n 12 variaties (€ 3 à  € 8) met falafel, hummus en pita.'
	},
	{
		'name' : 'Sjalot en Schanul',
		'lng' : '4.4004393',
		'lat' : '51.2220135',
		'website' : 'http://www.sjalotenschanul.be',
		'street' : 'Oude beurs 12',
		'postal' : '2000',
		'city' : 'Antwerpen',
		'phone' : '03/233.88.75',
		'mail' : null,
		'body' : '3 voorgerechten (€ 3.90 à  € 9). 4 warme en 6 koude hoofdgerechten (€ 10.50 à  € 12.50), o.a. warme groenteschotel met aardappelpuree. Veganistisch op aanvraag. Ontbijt (€ 7.70 tot € 12.50). Ook meeneem. Afzonderlijke rookvrije ruimte.'
	},
	{
		'name' : 'Wok A Way',
		'lng' : '4.4046306',
		'lat' : '51.2175254',
		'website' : 'http://www.wokaway.be',
		'street' : 'Groendalstraat 14',
		'postal' : '2000',
		'city' : 'Antwerpen',
		'phone' : '03/213.13.13',
		'mail' : 'info.antwerpen@wokaway.com',
		'body' : 'Zelf samen te stellen wokgerechten à  € 8.50. Je kiest je eigen saus, verse kruiden (bijvoorbeeld gember of koriander) en lekker gebakken tofu. Ook soep, dim sum en een paar uitstekende wijntjes per glas.'
	},
	{
		'name' : 'Café Latino',
		'lng' : '5.3397145',
		'lat' : '50.9308315',
		'website' : 'http://www.cafelatino.be',
		'street' : 'Zuivelmarkt 12',
		'postal' : '3500',
		'city' : 'Hasselt',
		'phone' : '011/22.34.82',
		'mail' : null,
		'body' : null
	},
	{
		'name' : 'Numero Dieci',
		'lng' : '5.3396478',
		'lat' : '50.9307773',
		'website' : 'http://www.numerodieci-scusi.be',
		'street' : 'Zuivelmarkt 10',
		'postal' : '3500',
		'city' : 'Hasselt',
		'phone' : '011/22.03.00',
		'mail' : 'davy.banken@telenet.be',
		'body' : 'Het restaurant werd genoemd naar het huisnummer. Deze Toscaanse trattoria stelt u in een eenvoudig, ongedwongen en gezellig kader een waaier aan pizza’s (de grootste van Hasselt) en pastagerechten voor. '
	},
	{
		'name' : 'Florian',
		'lng' : '5.3388283',
		'lat' : '50.9301208',
		'website' : 'http://www.florianhasselt.be/index.html',
		'street' : 'Fruitmarkt 22',
		'postal' : '3500',
		'city' : 'Hasselt',
		'phone' : '011/221525',
		'mail' : null,
		'body' : 'heel lekker! salades en pasta voor de vegetariers .. aanrader : pasta tomaat-mozarella'
	},
	{
		'name' : 'Opera',
		'lng' : '5.1192104',
		'lat' : '51.1880144',
		'website' : 'http://www.bistro-opera.be',
		'street' : 'Kloosterstraat 1',
		'postal' : '2400',
		'city' : 'Mol',
		'phone' : '014/31.80.66',
		'mail' : null,
		'body' : ' je kan allerlei snacks krijgen. Vegetarische lasagne, spaghetti, salade, broodjes,..'
	},
	{
		'name' : 'Tlemcen',
		'lng' : null,
		'lat' : null,
		'website' : null,
		'street' : null,
		'postal' : null,
		'city' : null,
		'phone' : '016/239978',
		'mail' : null,
		'body' : ' Voorgerecht rond 10€, hoofdgerecht (vegetarische tadjine) rond 14€. Max. 20 zitplaatsen. '
	},
	{
		'name' : 'Thai House',
		'lng' : '4.7039786',
		'lat' : '50.8774414',
		'website' : 'http://www.thaihouse.be',
		'street' : 'Alfonssmetsplein',
		'postal' : '3000',
		'city' : 'Leuven',
		'phone' : '016/23.87.88',
		'mail' : 'info@thaihouse.be',
		'body' : ' Vier vegetarische schotels, waarvan drie veganistisch zijn. Annex Thaise voedingswinkel met exotisch fruit en groenten. Hoofdgerechten tussen 8 en 10 €. '
	},
	{
		'name' : 'Bananasplit',
		'lng' : '5.4235886',
		'lat' : '51.2136569',
		'website' : 'http://www.banana-split.be/menu.html',
		'street' : 'Dorpsstraat 55',
		'postal' : '3900',
		'city' : 'Overpelt',
		'phone' : '011/801644',
		'mail' : 'alida.van.broekhoven@telenet.be',
		'body' : 'O.a. spaghetti, penne met artisjok, champignon, ajuin en asperges, tagliatelle verdi, salade met fruit, tagliatelle met quorn, paprika en champignons, groentetaart.'
	},
	{
		'name' : 'De Kruimel',
		'lng' : '4.7063735',
		'lat' : '50.8764747',
		'website' : 'http://www.kruimel.be',
		'street' : 'Tiensestraat 92',
		'postal' : '3000',
		'city' : 'Leuven',
		'phone' : '016/227958',
		'mail' : 'info@kruimel.be',
		'body' : 'verse, evenwichtige en gezonde gerechten met o.a. vegetarische lasagna, pizza\'s en andere vegetarische gerechten. Alle gerechten kan je eveneens terplekke of of telefonisch bestellen en vervolgens komen ophalen. '
	},
	{
		'name' : 'El Mariachi',
		'lng' : '2.9179812',
		'lat' : '51.2340596',
		'website' : 'http://restaurantelmariachi.wix.com/belgium#!__holandes',
		'street' : 'Kapucijnestraat 44',
		'postal' : '8400',
		'city' : 'Oostende',
		'phone' : '059/503884',
		'mail' : null,
		'body' : ' Verschillende vegetarische voorgerechten. Eén vegetarisch hoofdgerecht.'
	},
	{
		'name' : 'Sarabande',
		'lng' : '3.7205584',
		'lat' : '51.0556137',
		'website' : 'http://www.sarabande.be',
		'street' : 'Korenlei 1',
		'postal' : '9000',
		'city' : 'Gent',
		'phone' : '09/ 279.99.39',
		'mail' : null,
		'body' : ' Enkele vegetarische opties: tajine, couscous en Marokkaanse salade. Tevens een uitgebreid gamma aan Arabische wijnen.'
	},
	{
		'name' : '\'De Blauwe Frituur\'',
		'lng' : '3.2707747',
		'lat' : '50.8162652',
		'website' : 'http://www.deblauwefrituur.be/',
		'street' : 'Doorniksesteenweg 22',
		'postal' : '8500',
		'city' : 'Kortrijk',
		'phone' : '056/25.20.04',
		'mail' : null,
		'body' : 'een 15 tal verschillende vegetarische burgers, verschillende slaatjes en vegetarische/veganistische gerechten'
	},
	{
		'name' : 'De Wiering',
		'lng' : '4.698738',
		'lat' : '50.8796916',
		'website' : 'http://www.dewiering.be',
		'street' : ' Wieringstraat 2',
		'postal' : '3000',
		'city' : 'Leuven',
		'phone' : '016/291545',
		'mail' : 'info@dewiering.be',
		'body' : 'Vegetarische spaghetti; vegetarische salade; vegetarisch wokgerecht;  vegetarische schotel met sojaburger, warme groenten en rijst, vegetarische snacks. Gerechten tussen 5 en 12 €. '
	},
	{
		'name' : 'Il Pasticcio',
		'lng' : '5.3401211',
		'lat' : '50.9293351',
		'website' : null,
		'street' : 'Maastrichterstraat 72',
		'postal' : '3500',
		'city' : 'Hasselt',
		'phone' : '011/261939',
		'mail' : null,
		'body' : ' Zelfgemaakte pasta. Ook traiteur.'
	},
	{
		'name' : 'Chi Chi\'s',
		'lng' : '4.4873504',
		'lat' : '50.7914451',
		'website' : 'http://www.chichis.be',
		'street' : 'Brusselsesteenweg 541',
		'postal' : '3090',
		'city' : 'Overijse',
		'phone' : '02/657.57.00',
		'mail' : null,
		'body' : ' Als vegetariër heb je de keuze uit verschillende fajitas met groenten (groenten op een warme plaat met tortillas en een bordje met sla, guacamole, '
	},
	{
		'name' : 'Lyrique',
		'lng' : '4.7002771',
		'lat' : '50.879159',
		'website' : 'http://www.lodge-hotels.be',
		'street' : 'Grote Markt 12',
		'postal' : '3000',
		'city' : 'Leuven',
		'phone' : '016/292859',
		'mail' : null,
		'body' : 'Vegetarische pasta, vegetarische salade, vegetarische kroket, croque vegetarisch, broodje vegetarisch.'
	},
	{
		'name' : 'New Mexico',
		'lng' : '4.7029134',
		'lat' : '50.8780479',
		'website' : 'http://www.newmexico.be',
		'street' : 'Muntstraat 34',
		'postal' : '3000',
		'city' : 'Leuven',
		'phone' : '016/207445',
		'mail' : null,
		'body' : 'Twee verschillende vegetarische schotels waarvan een erg pikant. Je kan ook zelf je bord samen stellen. De meeste gerechten bevatten veel kaas. Prijzen tussen 12 en 16€. '
	},
	{
		'name' : 'Le Bar à Tapas',
		'lng' : null,
		'lat' : null,
		'website' : 'http://www.baratapas.be',
		'street' : 'Borgvalstraat 11',
		'postal' : '1000',
		'city' : 'Brussel',
		'phone' : '02/502.66.02',
		'mail' : 'centre@baratapas.be',
		'body' : null
	},
	{
		'name' : 'Le Bar à Tapas',
		'lng' : null,
		'lat' : null,
		'website' : 'http://www.baratapas.be',
		'street' : 'Borgvalstraat 11',
		'postal' : '1000',
		'city' : 'Brussel',
		'phone' : '02/502.66.02',
		'mail' : 'centre@baratapas.be',
		'body' : null
	},
	{
		'name' : 'Agadir',
		'lng' : '2.8890569',
		'lat' : '50.8412494',
		'website' : null,
		'street' : 'Rijselsestraat 42',
		'postal' : '8900',
		'city' : 'Sint-Jan',
		'phone' : '057/201291',
		'mail' : 'driss_elkhattabi@hotmail.com',
		'body' : 'Pitabar. Couscous, falafel.'
	},
	{
		'name' : 'La Perla',
		'lng' : '3.7263331',
		'lat' : '51.0444069',
		'website' : null,
		'street' : 'Sint-Pietersnieuwstraat 212',
		'postal' : '9000',
		'city' : 'Gent',
		'phone' : '09/223.04.87',
		'mail' : null,
		'body' : 'Veel vegetarische gerechten op de kaart, maar daarnaast kan je je salada of pasta ook zelf samenstellen. Groot binnenterras achter het restaurant, dat ook gebruikt kan worden voor allerhande feesten.'
	},
	{
		'name' : 'Timory',
		'lng' : '4.6966382',
		'lat' : '50.8802812',
		'website' : 'http://www.timory.be',
		'street' : 'Brusselsestraat 76',
		'postal' : '3000',
		'city' : 'Leuven',
		'phone' : '016/201321',
		'mail' : 'info@timory.be',
		'body' : 'Groententaart; rauwkost; vegetarische lasagne; vegetarische spirelli; vegetarisch stokbrood; asperges met broccoli; tagliatelli met verse tomaten; volkorenpasta met tomaten; volkorenpasta met groentengratin; gegratineerde groenten + suppl.: frietjes, kroketten, spaghetti, rijst.  '
	},
	{
		'name' : 'De Appel',
		'lng' : '4.707121',
		'lat' : '50.8773057',
		'website' : 'https://www.facebook.com/pages/De-Appel-Leuven/19188734708',
		'street' : 'Ravenstraat 11',
		'postal' : '3000',
		'city' : 'Leuven',
		'phone' : '016/201894',
		'mail' : 'albert.crombez1@telenet.be',
		'body' : ' verschillende vegetarische salades en pasta\'s, vegetarische lasagna.pasta\'s zonder gluten'
	},
	{
		'name' : 'Brasserie Cocozelle',
		'lng' : '4.485028',
		'lat' : '51.1673127',
		'website' : 'http://www.cocozelle.be',
		'street' : 'Oude Steenweg 74',
		'postal' : '2530',
		'city' : 'Boechout',
		'phone' : '03/455.41.38',
		'mail' : null,
		'body' : null
	},
	{
		'name' : 't Eetkafee',
		'lng' : '4.7268423',
		'lat' : '51.0752064',
		'website' : 'http://www.eetkafee.be',
		'street' : 'Bergstraat 2b',
		'postal' : '2220',
		'city' : 'Heist-op-den-Berg',
		'phone' : '015/24.26.28',
		'mail' : null,
		'body' : 'O.a. chili sin carne, spaghetti pesto, spaghetti bolognaise met seitan, salades en pizza\'s.\r\nOok om mee te nemen.'
	},
	{
		'name' : 'De Wingerd',
		'lng' : '4.7856501',
		'lat' : '51.0771795',
		'website' : 'https://plus.google.com/115754930365305481268/about?gl=be&hl=nl',
		'street' : 'Grote Baan 68',
		'postal' : '2235',
		'city' : 'Westmeerbeek',
		'phone' : '015/22.28.59',
		'mail' : null,
		'body' : 'o.a.: sojaragoà»t met basmatirijst, sojaburger met gierstkroketten en Philippijnse rijst, rijst met preikaassaus en seitan, spaghetti met vegetarische  bolognaisesaus.'
	},
	{
		'name' : 'La Porte des Indes',
		'lng' : '4.3710745',
		'lat' : '50.8179056',
		'website' : 'http://www.laportedesindes.com',
		'street' : 'Louisalaan 455',
		'postal' : '1050',
		'city' : 'Elsene',
		'phone' : '02/647.86.51',
		'mail' : null,
		'body' : ' heel veel keuze voor vegetariërs.'
	},
	{
		'name' : 'De Mangerie',
		'lng' : '4.8328878',
		'lat' : '51.1706341',
		'website' : 'http://www.demangerieherentals.be/',
		'street' : 'Bovenrij 17',
		'postal' : '2200',
		'city' : 'Noorderwijk',
		'phone' : '014/70.66.60',
		'mail' : ' info@demangerieherentals.be',
		'body' : 'o.a. gevulde aardappel met seizoensgroenten, 3-tal vegi pasta, groentenquiche, lasagna en pizza\'s. ook meeneem. '
	},
	{
		'name' : 'De Posterijen',
		'lng' : '4.8200308',
		'lat' : '51.1564671',
		'website' : 'http://www.samenopcafe.be/on%20line%20adressen/Herentals%20Herentals%20De%20Posterijen.htm',
		'street' : 'Markt 13',
		'postal' : '2200',
		'city' : 'Noorderwijk',
		'phone' : '014/232999',
		'mail' : null,
		'body' : ' Vegetarische salade en vegetarische lasagna/pasta. '
	},
	{
		'name' : 'Al Dente',
		'lng' : '4.3898536',
		'lat' : '51.2089974',
		'website' : 'http://www.aldente.be',
		'street' : 'Vlaamsekaai 52',
		'postal' : '2000',
		'city' : 'Antwerpen',
		'phone' : '03/237.09.90',
		'mail' : null,
		'body' : ' een aantal vegetarische salades en pasta\'s, met daarnaast ook bruschetta\'s en lookbrood. Vriendelijke bediening.'
	},
	{
		'name' : 'Spaghettiworld',
		'lng' : '4.4011356',
		'lat' : '51.2198771',
		'website' : 'http://www.spaghettiworld.be',
		'street' : 'Oude Koronmarkt 66',
		'postal' : '2000',
		'city' : 'Antwerpen',
		'phone' : '0496/929806',
		'mail' : 'verbeekdanielle@hotmail.com',
		'body' : ' heel wat vegetarische pasta\'s. Ook een aantal maaltijdsalades.'
	},
	{
		'name' : 'Via Via Reiscafé',
		'lng' : '4.404566',
		'lat' : '51.2214054',
		'website' : 'http://www.viaviacafe.com',
		'street' : 'Wolstraat 43',
		'postal' : '2000',
		'city' : 'Antwerpen',
		'phone' : '03/226.47.49',
		'mail' : 'antwerpen.belgium@viaviacafe.com',
		'body' : 'Er zijn dagsuggesties, waaronder ook vegetarische.  Reisbibliotheek. Diavoorstellingen e.a. projecten i.v.m. verre reizen. '
	},
	{
		'name' : 'Hoffy\'s',
		'lng' : '4.4200312',
		'lat' : '51.2128846',
		'website' : 'http://www.resto.be/hoffy',
		'street' : 'Lange Kievitstraat 52',
		'postal' : '2018',
		'city' : 'Antwerpen',
		'phone' : '03/234.35.35',
		'mail' : 'hoffy@resto.be',
		'body' : 'Traditionele joodse gerechten uit Centraal-Europa. Je stelt je schotel zelf samen. O.a. groentepà¢té, blini\'s met groenten, moussaka, kasha. Ook veganistisch is mogelijk'
	},
	{
		'name' : 'I Ro Ha',
		'lng' : '4.4171516',
		'lat' : '51.2159192',
		'website' : null,
		'street' : ' Lange Herentalsestraat 12',
		'postal' : '2018',
		'city' : 'Antwerpen',
		'phone' : '03/213.08.32',
		'mail' : null,
		'body' : 'Dertigtal schoteltjes, o.a. aubergine met misolaagje, tofu met shiitake, pompoentempura. Veel gerechtjes zijn volledig plantaardig. '
	},
	{
		'name' : 'Café Parti',
		'lng' : '3.7107757',
		'lat' : '51.0372759',
		'website' : 'http://www.cafeparti.be/',
		'street' : 'Maria-Hendrikaplein 65a',
		'postal' : '9000',
		'city' : 'Gent',
		'phone' : '09/242.32.91',
		'mail' : 'resto@cafeparti.be',
		'body' : 'Steeds een paar veggie-gerechten op de kaart, die regelmatig verandert. Onder meer carpaccio van geitenkaas; salade met trostomaten en mozzarella; groentenlasagne; bruschetta; vegetarische samosa; soep.... Veganisten bellen best enkele dagen op voorhand. Zeer aangenaam tuinterras. Let ook op het treintje!'
	},
	{
		'name' : 'Punjab Tandoori',
		'lng' : '3.7260634',
		'lat' : '51.0610192',
		'website' : 'http://www.punjabtandoorigent.com',
		'street' : 'Sleepstraat 67',
		'postal' : '9000',
		'city' : 'Gent',
		'phone' : '09/225.30.25',
		'mail' : null,
		'body' : 'O.a. dahl mix, sabri mix, alloo palek, pakora, samosa.'
	},
	{
		'name' : 'Frituur Groeninghe Veemarkt',
		'lng' : '3.2723518',
		'lat' : '50.8266132',
		'website' : 'http://www.frituurgroeninghe.be',
		'street' : 'Hoek Zwevegemsestraat - Veemarkt 1',
		'postal' : '8500',
		'city' : 'Kortrijk',
		'phone' : '056/20.35.98',
		'mail' : 'christel.wanten@telenet.be',
		'body' : 'Vegetarische en veganistische burgers, loempia\'s enz. Zelfs veganaise.'
	},
	{
		'name' : 'Tangh\'s',
		'lng' : '4.4017457',
		'lat' : '51.2101485',
		'website' : null,
		'street' : 'Kasteelpleinstraat 36',
		'postal' : '2000',
		'city' : 'Antwerpen',
		'phone' : '03/2483859',
		'mail' : null,
		'body' : '1 voorgerecht (€ 4): groentesoep. 4 hoofdgerechten (€ 9.50 à  € 12.50): soepnoedels, gebakken udon, rijstnoedels met pikante sojasaus, hutsepot, gebakken wokgroenten en algemeen veggie gerecht.'
	},
	{
		'name' : 'Coeur d\'Artichaut',
		'lng' : '3.7201006',
		'lat' : '51.055045',
		'website' : 'http://www.artichaut.be',
		'street' : 'Korenlei 10',
		'postal' : '9000',
		'city' : 'Gent',
		'phone' : '09/225.33.18',
		'mail' : 'restaurant@artichaut.be',
		'body' : 'Er zijn altijd vegetarische gerechten te verkrijgen, die à  la minute bereid worden door de chef-kok. '
	},
	{
		'name' : 'Kalypta',
		'lng' : '4.6994102',
		'lat' : '50.8788272',
		'website' : null,
		'street' : 'Parijsstraat 21',
		'postal' : '3000',
		'city' : 'Leuven',
		'phone' : '016/232406',
		'mail' : null,
		'body' : 'Dagschotel, een aantal vegetarische voor- en hoofdgerechten, vegan op aanvraag'
	},
	{
		'name' : 'Pitten en Bonen',
		'lng' : '4.4036379',
		'lat' : '51.2173953',
		'website' : 'http://www.pittenenbonen.be',
		'street' : 'Lombardenvest 31',
		'postal' : '2000',
		'city' : 'Antwerpen',
		'phone' : '03/213.28.88',
		'mail' : 'info@pittenenbonen.be',
		'body' : ' Verse fruitsappen en shakes (€ 4). Panini, focaccia\'s (€ 5-8 ), bokes (€ 4-6), salades, soep enkel in winter (€ 3.80).'
	},
	{
		'name' : 'Fez',
		'lng' : '4.3948317',
		'lat' : '51.2159162',
		'website' : 'http://www.fez.be',
		'street' : ' Kloosterstraat 52',
		'postal' : '2000',
		'city' : 'Antwerpen',
		'phone' : '0475/35.68.38',
		'mail' : 'info@fez.be',
		'body' : ' Onder meer soep, vegetarische couscous en tajines met linzen of bonen, en ook falafel. Elke zaterdagavond treedt een buikdanseres op vanaf 21:00u. Geen vegan aanbod.'
	},
	{
		'name' : 'El Sombrero',
		'lng' : '4.6967273',
		'lat' : '50.8817114',
		'website' : 'http://www.elsombreroleuven.com',
		'street' : 'Lei 25',
		'postal' : '3000',
		'city' : 'Leuven',
		'phone' : '016/231228',
		'mail' : null,
		'body' : ' Vlees wordt op een creatieve manier vervangen door groenten en zelfs fruit (vb. bakbananen). Gerechten rond 13€.'
	},
	{
		'name' : 'Izumi',
		'lng' : '4.3952403',
		'lat' : '51.207401',
		'website' : 'http://www.izumi.be',
		'street' : 'Beeldhouwersstraat 44',
		'postal' : '2000',
		'city' : 'Antwerpen',
		'phone' : '03/2161379',
		'mail' : 'izumi@resto.be',
		'body' : 'Soep met tofu en zeewier (€ 3.50), gebakken tofu met bosuitjes en gember (€ 7.50), zeewier met komkommer en rijstazijnsaus (€ 8), geraspte bergaardappels (€ 11), gebakken tofu (€ 11), gemarineerde zeewier (€ 7), sojabonen met zout (€ 7.50), gekookte tofu met saus (€ 7.50).'
	},
	{
		'name' : 'Brasserie St-Jean',
		'lng' : '4.6531913',
		'lat' : '50.8235594',
		'website' : 'http://www.st-jean.be',
		'street' : 'Waversebaan 157',
		'postal' : '3050',
		'city' : 'Oud-Heverlee',
		'phone' : '016/472700',
		'mail' : 'info@st-jean.be',
		'body' : 'Salades, soepen, groententaart, veggieburger met gestoofde groentjes, vegetarische lasagna. Prijzen tussen 10 en 13 €. '
	},
	{
		'name' : 'Time Out',
		'lng' : '4.4174815',
		'lat' : '51.2145729',
		'website' : null,
		'street' : 'Lange Herentalsestraat 58',
		'postal' : '2018',
		'city' : 'Antwerpen',
		'phone' : '03/2812300',
		'mail' : null,
		'body' : ' Zo\'n 20 snacks (€ 2.50 à  € 19.50). O.a. pizza, pretzel, malawach, lasagne, quiches, veggieburger, veggie hot dog, veggie shoarma, spaghetti, gnocchi, soep, salade. '
	},
	{
		'name' : 'Red Rooster Fast Food',
		'lng' : '3.1045063',
		'lat' : '51.0647155',
		'website' : 'http://www.redrooster.be',
		'street' : 'Stationsstraat 15',
		'postal' : '8820',
		'city' : 'Torhout',
		'phone' : '050/217541',
		'mail' : null,
		'body' : 'Vegetarische pizza\'s, schnitzels natuur of met broccoli, vegetarische\r\nnuggets, veggie balletjes, nasi goreng rollen, broccoli nuggets, veggie\r\nloempia\'s, groentenschijven, diverse veggieburgers.'
	},
	{
		'name' : 'Exki',
		'lng' : '4.3622509',
		'lat' : '50.8378708',
		'website' : 'http://www.exki.be',
		'street' : 'Elsensesteenweg 12',
		'postal' : '1050',
		'city' : 'Elsene',
		'phone' : '02/502.72.77',
		'mail' : null,
		'body' : ' Salades, soepen en groentetaarten. Op verschillende locaties in Brussel. Je vindt alle adressen op de website. '
	},
	{
		'name' : 'De Republiek',
		'lng' : '28.358804',
		'lat' : '-26.499043',
		'website' : 'http://www.derepubliek.be',
		'street' : 'St. Jacobsstraat 36',
		'postal' : '8000',
		'city' : 'Brugge',
		'phone' : '050/34.02.29',
		'mail' : 'info@derepubliek.be',
		'body' : 'Europese keuken, wereldkeuken en snacks.'
	},
	{
		'name' : 'Pasta Presto',
		'lng' : '3.2226719',
		'lat' : '51.2084838',
		'website' : 'http://www.pasta-presto.be',
		'street' : 'St. Amandstraat 17',
		'postal' : '8000',
		'city' : 'Brugge',
		'phone' : '050/34.55.36',
		'mail' : 'meoccik@telenet.be',
		'body' : ' Salades, pizza\'s. Ook meeneempasta in kartonnen bekertjes.'
	},
	{
		'name' : 'De Bottelier',
		'lng' : '2.8901132',
		'lat' : '50.849467',
		'website' : 'http://www.debottelier.com',
		'street' : 'St.Jacobsstraat 63',
		'postal' : '8000',
		'city' : 'Brugge',
		'phone' : '050/33.18.60',
		'mail' : 'restaurant@debottelier.com',
		'body' : 'Er zijn verschillende vegetarische opties. Op de benedenverdieping kan je wijnen kopen uit 18 verschillende landen.'
	},
	{
		'name' : 'Delaney\'s Irish Pub & Restaurant',
		'lng' : '3.2809229',
		'lat' : '51.2500226',
		'website' : 'http://www.delaneys.be',
		'street' : 'Burg 8 ',
		'postal' : '8000',
		'city' : 'Brugge',
		'phone' : '050/34.45.02',
		'mail' : 'info@delaneys.be',
		'body' : '3 veggie schotels (14-16 euro).'
	},
	{
		'name' : 'Rock Fort',
		'lng' : '3.2322745',
		'lat' : '51.209672',
		'website' : 'http://www.rock-fort.be',
		'street' : 'Langestraat 15',
		'postal' : '8000',
		'city' : 'Brugge',
		'phone' : '050/33.41.13',
		'mail' : 'info@rock-fort.be',
		'body' : ' Salades à  8 tot 11 €.\r\nVoor vegetarische hoofdschotel verwijst de kaart naar het aanbod van de dag. Reservatie aangeraden.\"'
	},
	{
		'name' : 'Al Barmaki',
		'lng' : null,
		'lat' : null,
		'website' : 'http://www.albarmaki.be',
		'street' : null,
		'postal' : null,
		'city' : null,
		'phone' : '02/513.08.34',
		'mail' : 'info@albarmaki.be',
		'body' : 'Serveert  heerlijke vegetarische mezze.'
	},
	{
		'name' : 'Les Jardins de Bagatelle',
		'lng' : '4.3666294',
		'lat' : '50.8333432',
		'website' : null,
		'street' : 'Herderstraat 17',
		'postal' : '1050',
		'city' : 'Elsene',
		'phone' : '02/512.12.76',
		'mail' : null,
		'body' : 'Elke dag is er een andere suggestie.'
	},
	{
		'name' : 'Notos',
		'lng' : '4.3628633',
		'lat' : '50.8264683',
		'website' : 'http://www.notos.be',
		'street' : 'Livornostraat 154',
		'postal' : '1000',
		'city' : 'Brussel',
		'phone' : '02/513.29.59',
		'mail' : 'info@notos.be',
		'body' : ' Er is keuze uit meerdere voorgerechten en als hoofdgerecht is er ook een veggie schotel. Vermeld in de Gault Millau'
	},
	{
		'name' : 'Rouge Tomate',
		'lng' : '4.3639365',
		'lat' : '50.8277882',
		'website' : 'http://www.rougetomate.be',
		'street' : 'Louizalaan 190',
		'postal' : '1050',
		'city' : 'Elsene',
		'phone' : '02/647.70.44',
		'mail' : 'info@rougetomate.be',
		'body' : null
	},
	{
		'name' : 'Nostradam',
		'lng' : '4.4799974',
		'lat' : '51.0268272',
		'website' : 'http://www.nostradam.be',
		'street' : 'Blauwhondstraat 25',
		'postal' : '2800',
		'city' : 'Mechelen',
		'phone' : '015/21.14.99',
		'mail' : null,
		'body' : 'De salades zijn heerlijk vers en gevarieerd, en in elke rubriek van de kaart, pasta, quiche, wok, croque ... is er een veggie variant.'
	},
	{
		'name' : 'Mata Mata & Pili Pili',
		'lng' : '4.3979415',
		'lat' : '51.2194429',
		'website' : 'http://www.matamatapilipili.be',
		'street' : 'Hoogstraat 44',
		'postal' : '2000',
		'city' : 'Antwerpen',
		'phone' : '03/213.19.28',
		'mail' : null,
		'body' : ' Diverse voor- en hoofdgerechten, o.a. groentecurry met okra en stoofpotje met rozijnencouscous.'
	},
	{
		'name' : 'Hot Falafel',
		'lng' : '3.7417492',
		'lat' : '51.0412007',
		'website' : null,
		'street' : 'Brusselsesteenweg 17A',
		'postal' : '9050',
		'city' : 'Ledeberg',
		'phone' : '0478/21 79 06',
		'mail' : 'hotfalafel20@gmail.com',
		'body' : 'Restaurant met een ruime keuze aan veggie gerechten.\r\nCateringbuffet kan volledig vegetarisch.\r\n\r\nOpeningsuren: \r\nDinsdag - vrijdag van 11u - 23u\r\nZaterdag van 16u - 23u\r\nzondag en maandag gesloten\r\n'
	},
	{
		'name' : 'Varelli',
		'lng' : '4.3945208',
		'lat' : '51.2175048',
		'website' : 'http://www2.resto.be/varelli/',
		'street' : 'Plantinkaai 15',
		'postal' : '2000',
		'city' : 'Antwerpen',
		'phone' : '03/4858882',
		'mail' : null,
		'body' : ' O.a. tsatsiki, spinazieflapjes, courgettekoekjes met dipsaus, aubergines uit de oven, schotel met biologisch brood van Kreta, geraspte tomaat, oregano en olijfolie, gevulde zoete pepers, fava (puree van gele spliterwten), linzenslaatje met\r\nverschillende groenten, pasta ... Een ruim aanbod van vegetarische gerechten.\"'
	},
	{
		'name' : 'Double Dragons',
		'lng' : '5.30741',
		'lat' : '50.89841',
		'website' : 'http://www.doubledragons.be/index.php',
		'street' : 'Hasseltweg 214',
		'postal' : '3500',
		'city' : 'Hasselt',
		'phone' : '089/356990',
		'mail' : 'info@doubledragons.be',
		'body' : '€ 27 voor een viergangenmenu.'
	},
	{
		'name' : 'Zubaji',
		'lng' : '4.388704',
		'lat' : '51.204846',
		'website' : 'http://www.zubaji.com',
		'street' : 'Bolivarplaats 4',
		'postal' : '2000',
		'city' : 'Antwerpen',
		'phone' : '03/290.06.46',
		'mail' : null,
		'body' : '€ 20 voor een menu.: Hong Kong loempia, pikante soep, gestoomde dim sum met gewokte groenten, dessert van de dag. Daarnaast (€ 9 à  € 10) mihoen, noedels, gebakken rijst en tofu po.'
	},
	{
		'name' : 'Delphi',
		'lng' : '4.3871082',
		'lat' : '51.206194',
		'website' : null,
		'street' : 'Gentplaats 5',
		'postal' : '2000',
		'city' : 'Antwerpen',
		'phone' : '03/2904272',
		'mail' : null,
		'body' : ' Koude en warme voorgerechten  (€ 3.50 à  € 9), hoofdgerechten (€ 9 à  € 16).'
	},
	{
		'name' : 'Wattman',
		'lng' : '4.4324047',
		'lat' : '51.2053512',
		'website' : 'http://www.wattman.be',
		'street' : 'Tramplein 3',
		'postal' : '2600',
		'city' : 'Berchem',
		'phone' : '03/230.55.40',
		'mail' : null,
		'body' : ' Broden en gebak met bio-ingrediënten. Salade met pestosaus (€ 8.75), Wattmans tomatenpie (€ 8.75), dagsoep (€ 3.35), penne met zwarte olijven (€ 9.75), gewokte groenten met zwarte bonensaus (€ 13). '
	},
	{
		'name' : 'Het Poorthuis',
		'lng' : '3.6916891',
		'lat' : '51.0684708',
		'website' : 'http://www.het-restaurant.be',
		'street' : 'Kempstraat 151',
		'postal' : '9000',
		'city' : 'Gent',
		'phone' : '09/375.64.23',
		'mail' : 'frank.de.graeve@ateljeevzw.be',
		'body' : 'Men betaalt op basis van inkomen. Elke dag is er een vegetarische dagschotel. Ook meeneem.'
	},
	{
		'name' : 'D\' Apotheose',
		'lng' : '4.3886062',
		'lat' : '51.2048618',
		'website' : 'http://www.dapotheose.be/index.html',
		'street' : 'Bolivarplaats 3',
		'postal' : '2000',
		'city' : 'Antwerpen',
		'phone' : '03/2370765',
		'mail' : 'info@apotheose.be',
		'body' : 'verrassende en vernieuwende impulsen, op alle gebied.\r\nSalade met lookcroûtons (€ 5.90), salade met gebakken champignons (€ 10.50), pasta met ratatouille, (€9.80) Linguine met pesto en gedroogde tomaten (€12.40). Je kan er vegan eten op aanvraag.'
	},
	{
		'name' : 'De Herk',
		'lng' : '4.3993991',
		'lat' : '51.2191312',
		'website' : 'http://www.deherk.be',
		'street' : 'Reyndersstraat 33',
		'postal' : '2000',
		'city' : 'Antwerpen',
		'phone' : '03/232.21.57',
		'mail' : null,
		'body' : ' Soep (€ 3), hoofdgerecht (€ 10.60), 3-gangenmenu à  € 17.50 met o.a. een groenteburger. \r\nPatioterras.'
	},
	{
		'name' : 'De Vagant',
		'lng' : '4.3991693',
		'lat' : '51.219236',
		'website' : 'http://www.devagant.be',
		'street' : 'Reyndersstraat 25',
		'postal' : '2000',
		'city' : 'Antwerpen',
		'phone' : '03/2331538',
		'mail' : ' info@devagant.be',
		'body' : ' Er zijn een drietal veggie hoofdgerechten (€ 10), waaronder een pasta met ratatouille en een gegratineerde groenteschotel.'
	},
	{
		'name' : 'Terras café (Hilton)',
		'lng' : '4.4020947',
		'lat' : '51.2196094',
		'website' : 'http://www3.hilton.com/en/index.html',
		'street' : 'Groenplaats 32',
		'postal' : '2000',
		'city' : 'Antwerpen',
		'phone' : '03/204.12.29',
		'mail' : null,
		'body' : 'Er zijn 4 vegetarische hoofdgerechten'
	},
	{
		'name' : 'Patijntje',
		'lng' : '3.6944654',
		'lat' : '51.0415397',
		'website' : 'http://www.patyntje.be',
		'street' : 'Gordunakaai 91',
		'postal' : '9000',
		'city' : 'Gent',
		'phone' : '09/222.32.73',
		'mail' : 'info@patyntje.be',
		'body' : ' Er is een tuin en mooi terras. Twee vegetarische maaltijden en vegan op aanvraag. Reserveren is aangeraden voor de lunch en tijdens het weekend.'
	},
	{
		'name' : 'Sushi-Food',
		'lng' : '3.7275316',
		'lat' : '51.0521974',
		'website' : 'http://www.sushi-food.be',
		'street' : 'Limburgstraat 36',
		'postal' : '9000',
		'city' : 'Gent',
		'phone' : '09/225.25.06',
		'mail' : 'sushi-food@skynet.be',
		'body' : 'Er is één  veggie pakket. Naast take-away service ook de mogelijkheid om gebruik te maken van het restaurantgedeelte. Er zijn slechts een 16-tal zitplaatsen, het is dus aan te raden op tijd te komen en je pakket op voorhand te bestellen.'
	},
	{
		'name' : 'De Onvrije Schipper',
		'lng' : '3.7202132',
		'lat' : '51.0552748',
		'website' : 'http://www.deonvrijeschipper.be',
		'street' : 'Korenlei 7A',
		'postal' : '9000',
		'city' : 'Gent',
		'phone' : '09/233.60.45',
		'mail' : 'lucyvanee@hotmail.com',
		'body' : 'De Onvrije Schipper aan de Korenlei biedt een grote variatie aan Italiaanse broodjes, pasta, salades en variërende suggesties met verse soepen die Thais geinspireerd zijn. Voor de veggies is er stokbrood, ciabatta en focaccia , pasta en pasta pesto  salades . De salades zijn veganistisch. In de zomer kan je onderuit zakken op het terras. '
	},
	{
		'name' : ' Pakhuis',
		'lng' : '3.7216984',
		'lat' : '51.0532072',
		'website' : 'http://www.pakhuis.be',
		'street' : 'Schuurkenstraat 4',
		'postal' : '9000',
		'city' : 'Gent',
		'phone' : '09/223.55.55',
		'mail' : 'info@pakhuis.be',
		'body' : 'Brasserie Pakhuis won EVA\'s Prijs der Zintuigen 2003 voor het beste vegetarische gerecht.'
	},
	{
		'name' : 'Bambou Fleur',
		'lng' : '4.3486106',
		'lat' : '50.8483427',
		'website' : 'https://www.facebook.com/pages/Au-Bambou-Fleur/214294795253395',
		'street' : 'Jules van Praetstraat 13',
		'postal' : '1000',
		'city' : 'Brussel',
		'phone' : '02/502.29.51',
		'mail' : null,
		'body' : 'Er zijn o.a. gewokte tofu met groenten en seitan met curry.	'
	},
	{
		'name' : 'Gourmet d\'Asie',
		'lng' : '4.3473484',
		'lat' : '50.8484557',
		'website' : null,
		'street' : 'Van Arteveldestraat 14',
		'postal' : '1000',
		'city' : 'Brussel',
		'phone' : '02/503.13.57',
		'mail' : null,
		'body' : 'Er zijn meer dan tien veggie opties.'
	},
	{
		'name' : 'Thien Long',
		'lng' : '4.3473918',
		'lat' : '50.8484756',
		'website' : 'https://www.facebook.com/pages/Thien-Long-belgium/180707738702059?id=180707738702059&sk=info',
		'street' : 'Van Arteveldestraat 12',
		'postal' : '1000',
		'city' : 'Brussel',
		'phone' : '02/511.34.80',
		'mail' : null,
		'body' : 'Er zijn verschillende veggie opties.'
	},
	{
		'name' : 'Bleu de toi',
		'lng' : '4.3511597',
		'lat' : '50.8425819',
		'website' : 'http://www.bleudetoi.be',
		'street' : 'Cellebroerstraat 73',
		'postal' : '1000',
		'city' : 'Brussel',
		'phone' : '02/502.43.71',
		'mail' : 'bleudetoi@skynet.be',
		'body' : ' De specialiteit zijn gevulde bintjes in de schil.'
	},
	{
		'name' : 'Le Perroquet',
		'lng' : '4.3535548',
		'lat' : '50.8395208',
		'website' : 'http://www.newsites.resto.com/leperroquet/',
		'street' : 'Watteeustraat 31',
		'postal' : '1000',
		'city' : 'Brussel',
		'phone' : '02/512.99.22',
		'mail' : 'oliviadebrouwes@skynet.be',
		'body' : ' Veggie pita’s, salades, lasagne en macaroni voor een zacht prijsje.'
	},
	{
		'name' : 'Skievelat',
		'lng' : '4.3525525',
		'lat' : '50.8415786',
		'website' : 'http://www.skievelat.be',
		'street' : 'J. Stevensstraat 16-18',
		'postal' : '1000',
		'city' : 'Brussel',
		'phone' : '02/502.25.12',
		'mail' : null,
		'body' : 'Er staat vooral pasta op de kaart.'
	},
	{
		'name' : 'Orphyse Chausette',
		'lng' : '4.3534207',
		'lat' : '50.8395348',
		'website' : null,
		'street' : 'Charles Hanssensstraat 5',
		'postal' : '1000',
		'city' : 'Brussel',
		'phone' : '02/502.75.81',
		'mail' : 'orphyse.chauseette@skynet.be',
		'body' : 'Er staan meer dan honderd Zuid-Franse wijnen op de kaart.'
	},
	{
		'name' : 'La Maison des Crêpes',
		'lng' : '4.3505063',
		'lat' : '50.8472349',
		'website' : null,
		'street' : 'Zuidstraat 11',
		'postal' : '1000',
		'city' : 'Brussel',
		'phone' : '0475/95.73.68',
		'mail' : null,
		'body' : 'Er zijn  een heleboel zoute en zoete pannenkoeken.'
	},
	{
		'name' : 'Sweet Lime',
		'lng' : '3.2616938',
		'lat' : '50.8292438',
		'website' : 'http://www.sweet-lime.be/',
		'street' : 'Kasteelkaai 4',
		'postal' : '8500',
		'city' : 'Kortrijk',
		'phone' : '056/20.40.20',
		'mail' : null,
		'body' : 'Diverse vegetarische pasta\'s, vegetarische paninis (gegrilde, warme broodjes) met slaatje, mexicaanse gerechtjes (vegetarische enchiladas), Indische gerechten, regelmatig vegetarische suggesties.'
	},
	{
		'name' : 'Funky Food',
		'lng' : '3.2644463',
		'lat' : '50.8255467',
		'website' : 'http://www.funkyfood.be',
		'street' : 'Stationsstraat 9A',
		'postal' : '8500',
		'city' : 'Kortrijk',
		'phone' : '056/22.69.76',
		'mail' : null,
		'body' : 'Gerechten met tofu, veggieburgers met een waaier van verse groenten. Vruchtensapjes. Elke maand zijn er nieuwe suggesties.'
	},
	{
		'name' : 'Le Pullman',
		'lng' : '4.3727046',
		'lat' : '50.8396155',
		'website' : null,
		'street' : 'Luxemburgplein 12',
		'postal' : '1050',
		'city' : 'Elsene',
		'phone' : '02/230.15.82',
		'mail' : null,
		'body' : 'Er is keuze uit twee pasta\'s en een salade.'
	},
	{
		'name' : 'Le Bol de Riz',
		'lng' : '4.3803976',
		'lat' : '50.8363823',
		'website' : null,
		'street' : 'Waversesteenweg 335',
		'postal' : '1040',
		'city' : 'Etterbeek',
		'phone' : '02/640.37.09',
		'mail' : null,
		'body' : 'Er zijn vier veggie hoofdgerechten.'
	},
	{
		'name' : 'Chez Michel',
		'lng' : '4.3818373',
		'lat' : '50.8363756',
		'website' : null,
		'street' : 'Sint-Pieterssteenweg 5',
		'postal' : '1040',
		'city' : 'Etterbeek',
		'phone' : '02/648.81.36',
		'mail' : null,
		'body' : 'Er is een ruim veggie aanbod. Je kan er ook je portie komen afhalen.'
	},
	{
		'name' : 'Como Como',
		'lng' : '4.347551',
		'lat' : '50.8492599',
		'website' : 'http://www.comocomo.com',
		'street' : 'Antoine Dansaert 19',
		'postal' : '1000',
		'city' : 'Brussel',
		'phone' : '02/503.03.30',
		'mail' : 'dansaert@comocomo.com',
		'body' : ' Pinxto\'s zijn Baskische tapas. Veel veggie keuze en ook enkele veganistische opties'
	},
	{
		'name' : 'Le Paon Royal',
		'lng' : '4.3471234',
		'lat' : '50.850115',
		'website' : 'http://www.paonroyal.com',
		'street' : 'Oude Graanmarkt  6',
		'postal' : '1000',
		'city' : 'Brussel',
		'phone' : '02/513.08.68',
		'mail' : null,
		'body' : 'Er is een gezellig terras.'
	},
	{
		'name' : 'Kom Kom',
		'lng' : '4.3573808',
		'lat' : '50.8552571',
		'website' : 'http://www.hotel-le-dome.be',
		'street' : 'Kruidtuinlaan 13',
		'postal' : '1000',
		'city' : 'Brussel',
		'phone' : '02/218.45.29',
		'mail' : null,
		'body' : 'Er is  een veggie driegangenmenu.'
	},
	{
		'name' : 'Little Asia',
		'lng' : '4.3515499',
		'lat' : '50.8427501',
		'website' : 'http://www.littleasia.be',
		'street' : 'rue St. Cathérine St. Katelijnestraat 8',
		'postal' : '1000',
		'city' : 'Brussel',
		'phone' : '02/502.88.36',
		'mail' : 'littleasia@skynet.be',
		'body' : 'Het restaurant is druk bezocht en bekend.  De eigenares heeft al twee eigen kookboeken uitgebracht.'
	},
	{
		'name' : 'Exki',
		'lng' : '4.4166238',
		'lat' : '51.2178026',
		'website' : 'http://www.exki.be',
		'street' : 'De Keyserlei 20',
		'postal' : '2000',
		'city' : 'Antwerpen',
		'phone' : '03/234.96.46',
		'mail' : 'keiserlei@exki.be',
		'body' : ' Je kiest je verpakte hapje uit in de koeltoog en rekent onmiddellijk af aan de kassa. Altijd verschillende veggie pasta\'s en salades, soms ook beperkt veganistisch aanbod. Er is ook een adres op de wiegstraat.'
	},
	{
		'name' : 'Tan',
		'lng' : '4.3666294',
		'lat' : '50.8333432',
		'website' : 'http://www.tanclub.org',
		'street' : 'Waterleidingstraat 95',
		'postal' : '1050',
		'city' : 'Elsene',
		'phone' : '02/537.87.87',
		'mail' : 'info@tanclub.org',
		'body' : 'Er staan verschillende originele veggie gerechten op het menu.'
	},
	{
		'name' : 'Wokaway',
		'lng' : '3.7217452',
		'lat' : '51.0545103',
		'website' : 'http://www.wokaway.be',
		'street' : 'Korenmarkt 11',
		'postal' : '9000',
		'city' : 'Gent',
		'phone' : '09/233.90.00',
		'mail' : 'info.gent@wokaway.be',
		'body' : 'Je kan er kiezen tussen vegetarische wokgerechten (van de kaart of zelf samengesteld), dimsums, wraps en sushi. Je bestelt aan de toog en je eten wordt aan tafel gebracht. Op vrijdag en zaterdagavond verandert Wokaway in After Dark, een funky cocktailbar met live DJ\'s en visuals.'
	},
	{
		'name' : 'Thawan Thai Take Away',
		'lng' : '3.7395248',
		'lat' : '51.0370673',
		'website' : 'http://www.thawanthai.be',
		'street' : 'Jacques Eggermontstraat 72',
		'postal' : '9050',
		'city' : 'Ledeberg',
		'phone' : '09/324.01.01',
		'mail' : null,
		'body' : 'Meer dan 20 gerechten zijn op vegetarische basis. Er is keuze voor veganisten.'
	},
	{
		'name' : 'De Goei Goesting',
		'lng' : '5.3399143',
		'lat' : '50.9309939',
		'website' : 'http://www.degoeigoesting.be',
		'street' : 'Zuivelmarkt 18',
		'postal' : '3500',
		'city' : 'Hasselt',
		'phone' : '011/325282',
		'mail' : 'info@degoeigoesting.be',
		'body' : 'Terras'
	},
	{
		'name' : 'Lotus Root',
		'lng' : '3.639286',
		'lat' : '50.957643',
		'website' : 'http://www.lotusroot.net',
		'street' : 'Stationsstraat 33',
		'postal' : '9810',
		'city' : 'Nazareth',
		'phone' : '09/280.07.77',
		'mail' : 'chef@lotusroot.net',
		'body' : null
	},
	{
		'name' : 't Roodhof',
		'lng' : '3.2150749',
		'lat' : '51.1405288',
		'website' : 'http://www.troodhof.be',
		'street' : 'Nieuwburgstraat 32',
		'postal' : '8020',
		'city' : 'Waardamme',
		'phone' : '050/84.22.90',
		'mail' : 'info@roodhof.be',
		'body' : 'Op reservatie. Ook catering van feesten.'
	},
	{
		'name' : 'De Lieve\'s Bistronoom',
		'lng' : '3.656709',
		'lat' : '51.0921816',
		'website' : 'http://delievesbistronoom.be/',
		'street' : 'Rabotstraat 120',
		'postal' : '9940',
		'city' : 'Sleidinge',
		'phone' : '09/253.10.55',
		'mail' : null,
		'body' : 'Ligt aan het begin van een wandelpad langs de rivier De Lieve.'
	},
	{
		'name' : 'Miel van Kest',
		'lng' : '4.706611',
		'lat' : '50.9929567',
		'website' : 'http://www.mielvankest.be',
		'street' : 'Schrieksebaan 59',
		'postal' : '3120',
		'city' : 'Tremelo',
		'phone' : '016/537738',
		'mail' : 'info@mielvankest.be',
		'body' : 'Er is een vaste menukaart en ook suggesties van het moment. Voor vegetariërs hebben ze een groententaart (€ 6,5), geitenkaas met honingvinaigrette (€ 8,20 - 11,50), Griekse sla (€ 8,50), gestoofde groentjes met rijst of aardappel in de schil (€ 10), vegetarische pasta met seizoensgroentjes (€ 10,50).'
	},
	{
		'name' : 'Den boer van Zoersel',
		'lng' : '4.7062465',
		'lat' : '51.2498426',
		'website' : 'http://www.den-boer-van-zoersel.be',
		'street' : 'Rodendijk 32',
		'postal' : '2980',
		'city' : 'Zoersel',
		'phone' : '03/309.28.00',
		'mail' : null,
		'body' : 'Huisbereide lasagne (€ 14), burger en veggie spaghetti zijn de 3 opties op de kaart.'
	},
	{
		'name' : 'De oude post',
		'lng' : '5.0897458',
		'lat' : '51.0674209',
		'website' : 'http://www.deoude-post.be',
		'street' : 'Stationsstraat 1',
		'postal' : '3980',
		'city' : 'Tessenderlo',
		'phone' : '013/66.56.33',
		'mail' : 'deoudepost@telenet.be',
		'body' : 'Marktverse sla, pasta vegetarisch, wok veggie, millefeuille van aubergine, tomaat, mozerella. Zaal voor feestjes.'
	},
	{
		'name' : 'Taste of India',
		'lng' : '5.3390481',
		'lat' : '50.9296339',
		'website' : 'http://www.tasteofindia1.com',
		'street' : 'Fruitmarkt 26',
		'postal' : '3500',
		'city' : 'Hasselt',
		'phone' : '011/26.28.23',
		'mail' : 'info@tasteofindia1.com',
		'body' : 'Keuze uit verschillende vegetarische schotels, aan te vullen met rijst en/of brood. O.a. meerdere curry\'s (€4 - €5.50), samosa (€3), groentenbiryani (€11). Ook mogelijkheid tot meerdere gangen. Ook catering en meeneem.'
	},
	{
		'name' : 'Het Labyrint',
		'lng' : '3.9373238',
		'lat' : '50.91319',
		'website' : 'http://www.hetlabyrint.be',
		'street' : 'Dries 29',
		'postal' : '8950',
		'city' : 'Nieuwkerke',
		'phone' : '057/44.65.81',
		'mail' : null,
		'body' : null
	},
	{
		'name' : 'Delhi Delicious',
		'lng' : '4.4549694',
		'lat' : '51.19805',
		'website' : 'http://www.delhidelicious.be',
		'street' : 'Gitschotellei 379',
		'postal' : '2140',
		'city' : 'Borgerhout',
		'phone' : '03/366.19.48',
		'mail' : 'DelhiDelicious379@gmail.com',
		'body' : 'Indische keuken met een ruim vegetarisch aanbod. O.a. dhalsoep, linzenschotels en biryani. Ook meeneem en thuislevering.'
	},
	{
		'name' : 'Bali',
		'lng' : '4.4901521',
		'lat' : '51.208222',
		'website' : 'http://www.bali.be',
		'street' : 'Autolei 217',
		'postal' : '2160',
		'city' : 'Wommelgem',
		'phone' : '03/321.11.11',
		'mail' : 'info@bali.be',
		'body' : 'Vegetarische rijsttafel Bogor met 13 verschillende streekgerechten (€ 23 p/p, min. 2 pers.), gado-gado (€ 10), Tahoe Telor (€10,50). Feestzaal. Ook meeneem. '
	},
	{
		'name' : 'Tom Yam',
		'lng' : '4.38383',
		'lat' : '50.8186021',
		'website' : 'http://www.tomyam.com',
		'street' : 'Chaussee de Boondaalsesteenweg 341',
		'postal' : '1050',
		'city' : 'Elsene',
		'phone' : '02/646.50.13',
		'mail' : null,
		'body' : 'Verfijnde Thaise gerechten aan een zacht prijsje. Je kan ook aan huis laten bestellen. '
	},
	{
		'name' : 'Le Grenier d\'Elvire',
		'lng' : '4.3837798',
		'lat' : '50.8186383',
		'website' : 'http://www.legrenierdelvire.be',
		'street' : 'Boondaalsesteenweg 339a',
		'postal' : '1050',
		'city' : 'Elsene',
		'phone' : '02/648.43.48',
		'mail' : 'hello@legrenierdelvire.be',
		'body' : null
	},
	{
		'name' : 'Rood',
		'lng' : '3.7289743',
		'lat' : '51.063821',
		'website' : 'http://www.resto-rood.be',
		'street' : 'Sleepstraat 210',
		'postal' : '9000',
		'city' : 'Gent',
		'phone' : '09/223.80.75',
		'mail' : 'info@restorood.be',
		'body' : 'Elke middag een vegetarische dagschotel. \'s Avonds is er een ruimere keuze, o.a. een wokgerecht,een pasta en een suggestie.  De kaart verandert om de drie maanden. '
	},
	{
		'name' : 'Marco Polo Trattoria',
		'lng' : '3.7256585',
		'lat' : '51.056088',
		'website' : null,
		'street' : 'Serpentstraat 11',
		'postal' : '9000',
		'city' : 'Gent',
		'phone' : '09/225.04.20',
		'mail' : 'faustoregine2003@yahoo.it',
		'body' : 'Italiaans restaurant waar in de halfopen keuken ongeveer alles wordt bereid, van de pasta tot de gelati. Marco Polo sluit aan bij de slow-food traditie: culinair genieten met onthaasting. Ongeveer 85% van de kaart is vegetarisch. Vegans bellen even op voorhand.'
	},
	{
		'name' : 'Chess Café',
		'lng' : '3.7315927',
		'lat' : '51.0238915',
		'website' : 'http://www.chesscafe.be',
		'street' : 'Ottergemsesteenweg 802',
		'postal' : '9000',
		'city' : 'Gent',
		'phone' : '09/338.89.99',
		'mail' : 'gent@chesscafe.be',
		'body' : 'Je stelt zelf je wokschotels samen. Altijd à volonté wokken (behalve \'s middags).  \r\nElke vrijdag- en zaterdagavond zet een DJ de beentjes in beweging. Keep on wokking! \r\nEr is een gratis privéparking vóór de deur. Alles is gemakkelijk toegankelijk voor rolstoelgebruikers.'
	},
	{
		'name' : 'Pasta-Hippo',
		'lng' : '4.3999316',
		'lat' : '51.2199192',
		'website' : 'http://www.apm-hippo.be',
		'street' : 'Oude Koornmarkt 32-34',
		'postal' : '2000',
		'city' : 'Antwerpen',
		'phone' : '03/213.16.86',
		'mail' : 'info@pasta-hippo-vino.be',
		'body' : 'Via een trap naar boven beland je in het Italië van weleer. Fresco’s, mozaïekvloer en open keuken. Heel uitgebreide keuze aan veggie pasta\'s.\r\n'
	},
	{
		'name' : 'De Vooruit',
		'lng' : '3.7273816',
		'lat' : '51.0477039',
		'website' : 'http://www.vooruit.be',
		'street' : 'Sint-Pietersnieuwstraat 23',
		'postal' : '9000',
		'city' : 'Gent',
		'phone' : '09/267.28.20',
		'mail' : 'willie@vooruit.be',
		'body' : 'Het ruime café met hoge plafonds biedt een wekelijks wisselende suggestiekaart, met telkens een vegetarische optie. Vooruit werkt veel met bio- en/of fair trade producten.'
	},
	{
		'name' : 'Greenway Leuven',
		'lng' : '4.6996227',
		'lat' : '50.8791385',
		'website' : 'http://www.greenway.be',
		'street' : 'Parijsstraat 12',
		'postal' : '3000',
		'city' : 'Leuven',
		'phone' : '016/30.97.35',
		'mail' : 'info@greenway.be',
		'body' : ' Gezonde fastfood. Pasta\'s, salades, Oosterse gerechten, burgers, broodjes, soep. Eerlijke prijzen. Ook meeneem.'
	},
	{
		'name' : 'Fonduehuis La Paix',
		'lng' : '3.1335864',
		'lat' : '50.9500221',
		'website' : 'http://fonduehuislapaixroeselare.be',
		'street' : 'Ardooisesteenweg 74',
		'postal' : '8800',
		'city' : 'Rumbeke',
		'phone' : '051/20.48.86',
		'mail' : 'lapaix@skynet.be',
		'body' : null
	},
	{
		'name' : 'De Groene Hendrickx',
		'lng' : '5.3402097',
		'lat' : '50.931359',
		'website' : null,
		'street' : 'Zuivelmarkt 25',
		'postal' : '3500',
		'city' : 'Hasselt',
		'phone' : '011/24.33.39',
		'mail' : null,
		'body' : 'Aparte vermelding van vegetarische gerechten op de kaart. O.a Groentenbouillon (€ 3), Cannelloni Florentin (€ 9.30), Volkorenspaghetti met gewokte groenten en pesto (€ 11.50), enkele ciabatta\'s (€ 6.50) en het winnende gerecht.'
	},
	{
		'name' : 'Korenlei Twee',
		'lng' : '3.7204675',
		'lat' : '51.0556175',
		'website' : 'http://www.korenleitwee.be',
		'street' : 'Korenlei 2',
		'postal' : '9000',
		'city' : 'Gent',
		'phone' : '09/224.00.72',
		'mail' : null,
		'body' : 'Terras, bar, lounge. Gerechten kunnen steeds aangepast worden om ze veganistisch te maken.'
	},
	{
		'name' : 'Belga Queen',
		'lng' : '3.7209535',
		'lat' : '51.0548292',
		'website' : 'http://www.belgaqueen.be',
		'street' : 'Graslei 10',
		'postal' : '9000',
		'city' : 'Gent',
		'phone' : '09/280.01.00',
		'mail' : 'info.gent@belgaqueen.be',
		'body' : 'Modern interieur met drie verdiepingen. Bezoek zeker de toiletten! Enkele vegetarische gerechten, waaronder een assortiment van groenten, verschillende bereidingswijzen.Terras aan de Graslei.'
	},
	{
		'name' : 'Carte Blanche',
		'lng' : '3.7097497',
		'lat' : '51.0477517',
		'website' : 'http://www.carteblanchepw.be',
		'street' : 'Martelaarslaan 321',
		'postal' : '9000',
		'city' : 'Gent',
		'phone' : '09/233.28.08 en 0478/54.05.12',
		'mail' : 'carteblanchepw@skynet.be',
		'body' : 'Vegetarisch menu op aanvraag. Volgens de inspiratie van de creatieve chef.\r\nHogere prijsklasse.'
	},
	{
		'name' : 'Poespas Gezondheidsbar',
		'lng' : '4.4446235',
		'lat' : '51.2441813',
		'website' : null,
		'street' : 'Bredabaan 430',
		'postal' : '2170',
		'city' : 'Merksem',
		'phone' : '0485/566538',
		'mail' : null,
		'body' : 'Ook meeneem. Terras.'
	},
	{
		'name' : 'Sala Thai 3',
		'lng' : '3.7214761',
		'lat' : '51.055381',
		'website' : 'http://www.salathai3.be',
		'street' : 'Hooiaard 5',
		'postal' : '9000',
		'city' : 'Gent',
		'phone' : '09/233.14.63',
		'mail' : null,
		'body' : 'De exotische Thaise keuken. Op de kaart o.a.gebakken tofu met groenten en diverse sauzen. Vlakbij de Korenmarkt.'
	},
	{
		'name' : 'Dolce Far Niente',
		'lng' : '3.6260571',
		'lat' : '51.0059851',
		'website' : null,
		'street' : 'Kortrijksesteenweg 210',
		'postal' : '9830',
		'city' : 'Sint-Martens-Latem',
		'phone' : '09/280.07.07',
		'mail' : null,
		'body' : 'Voorgerechten (€ 8 - 15), o.a. Bruschetta met aubergines, tomaten en olijven, hoofdgerechten (€ 10 - 20). '
	},
	{
		'name' : 'Gate of India',
		'lng' : '3.7238277',
		'lat' : '51.0578796',
		'website' : null,
		'street' : 'Oudburg 1',
		'postal' : '9000',
		'city' : 'Gent',
		'phone' : '09/233.21.37',
		'mail' : null,
		'body' : 'Onder meer mix groenten, palik dal (spinazie en linzen), tarka dal, okra, palak paneer, vegetarische samosa.'
	},
	{
		'name' : 'Kapittelhuis',
		'lng' : '3.7256224',
		'lat' : '51.052871',
		'website' : 'http://www.kapittelhuis.be',
		'street' : 'Lange Kruisstraat 4',
		'postal' : '9000',
		'city' : 'Gent',
		'phone' : '09/336.85.19',
		'mail' : 'info@kapittelhuis.be',
		'body' : 'Onder meer lasagne met spinazie, tomaat en fetakaas , spaghetti en omeletgerechten met rauwkost en brood . Regelmatig ook een vegetarische dagschotel. Speelhuisje voor de kinderen.'
	},
	{
		'name' : 'Ni Hao',
		'lng' : '5.30741',
		'lat' : '50.89841',
		'website' : 'http://users.telenet.be/nihao/afhaal.pdf',
		'street' : 'Crutzenstraat 6',
		'postal' : '3500',
		'city' : 'Hasselt',
		'phone' : '011/871683',
		'mail' : null,
		'body' : 'O.a. soep, mini-loempia\'s (voorgerecht), tofu-stoofpotje en bami-groentenschotel. Ook meeneem.'
	},
	{
		'name' : 'Orangerie',
		'lng' : '4.0999121',
		'lat' : '50.865691',
		'website' : 'http://www.wallflower.be/orangerie/',
		'street' : 'Schelfhoutstraat 77',
		'postal' : '1770',
		'city' : 'Liedekerke',
		'phone' : '053/68.58.53',
		'mail' : 'orangerieliedekerke@gmail.com',
		'body' : ' O.a. Salade Japonaise (met veggie loempia), Salade Boekos (met veggie brochetjes) en Salade Favorite (met Quorn). Verder ook nog spaghetti en lasagne in vegetarische versie. Terras.'
	},
	{
		'name' : 'De Lavendel',
		'lng' : '4.0205157',
		'lat' : '50.8367971',
		'website' : 'http://www.delavendel.be',
		'street' : 'Lavendelstraat 11',
		'postal' : '9400',
		'city' : 'Voorde',
		'phone' : '054/33.32.03',
		'mail' : 'info@delavendel.be',
		'body' : 'Onder andere stoofpotje van tofu en seitan en spaghetti met courgetten en pestosaus.'
	},
	{
		'name' : 'Toi et moi',
		'lng' : '3.7174635',
		'lat' : '51.0543355',
		'website' : 'http://www.restotoietmoi.be',
		'street' : 'Sint-Michielsstraat 31',
		'postal' : '9000',
		'city' : 'Gent',
		'phone' : '09/225.86.33',
		'mail' : 'restotoietmoi@skynet.be',
		'body' : 'Restaurant met een beperkte vaste kaart en wisselende suggesties. '
	},
	{
		'name' : 'Het andere idee',
		'lng' : '3.2151981',
		'lat' : '51.2038117',
		'website' : null,
		'street' : 'Hauwerstraat 9',
		'postal' : '8000',
		'city' : 'Brugge',
		'phone' : '050/341789',
		'mail' : null,
		'body' : 'Keuze uit 4 veggie gerechten. Reserveren aangeraden.'
	},
	{
		'name' : 'Gastronomia Cellini',
		'lng' : '5.7106715',
		'lat' : '50.9787264',
		'website' : null,
		'street' : 'Maasmechelen Village',
		'postal' : '3630',
		'city' : 'Vucht',
		'phone' : '089/767625',
		'mail' : null,
		'body' : 'Enkele vegetarische opties. O.a. spaghetti.'
	},
	{
		'name' : 't Oud Gemeentehuis',
		'lng' : '3.2212013',
		'lat' : '51.1098815',
		'website' : null,
		'street' : 'Kortrijksstraat 405',
		'postal' : '8020',
		'city' : 'Waardamme',
		'phone' : '050/27.99.22',
		'mail' : null,
		'body' : 'Vaste kaart en wisselende suggesties. Keuze uit verschillende veggie schotels. O.a. moussaka met sojagehakt en linzen-tomatensaus, wokschotel met dagverse groenten en Quorn en spaghetti met gerookte tofu. Voor de kinderen zijn er aangepaste gerechten. '
	},
	{
		'name' : 'De Stroobander',
		'lng' : '5.2731013',
		'lat' : '50.9494398',
		'website' : 'http://users.telenet.be/gille/stroobander/main.html',
		'street' : 'St. Jozefsplein 13',
		'postal' : '3511',
		'city' : 'Stokrooie',
		'phone' : '011/16.21.36',
		'mail' : null,
		'body' : 'De keuken is van zéér goede kwaliteit!\r\nEn het is prijsvriendelijk.'
	},
	{
		'name' : 'De Markten',
		'lng' : '4.3467599',
		'lat' : '50.8504541',
		'website' : 'http://www.demarkten.be',
		'street' : 'Oude Graanmarkt 5',
		'postal' : '1000',
		'city' : 'Brussel',
		'phone' : '02/514.66.04',
		'mail' : 'demarktenjem@tiscali.be',
		'body' : 'Dagelijks is een van de dagschotels vegetarisch. Keuze uit verschillende lichte gerechten. '
	},
	{
		'name' : 'De Markten',
		'lng' : '4.3467599',
		'lat' : '50.8504541',
		'website' : 'http://www.demarkten.be',
		'street' : 'Oude Graanmarkt 5',
		'postal' : '1000',
		'city' : 'Brussel',
		'phone' : '02/514.66.04',
		'mail' : 'demarktenjem@tiscali.be',
		'body' : 'Dagelijks is een van de dagschotels vegetarisch. Keuze uit verschillende lichte gerechten. '
	},
	{
		'name' : 'Neuf et Voisin',
		'lng' : '4.3474128',
		'lat' : '50.848777',
		'website' : 'http://www.ebru.be/Restaurants/resto-bruxelles-1000-neuf-et-voisin.html',
		'street' : 'Van Arteveldestraat 1',
		'postal' : '1000',
		'city' : 'Brussel',
		'phone' : '02/512.90.49',
		'mail' : null,
		'body' : null
	},
	{
		'name' : 'Annapurna',
		'lng' : '4.3507374',
		'lat' : '50.8519401',
		'website' : 'http://web.resto.com/annapurna',
		'street' : 'Lakensestraat 26',
		'postal' : '1000',
		'city' : 'Brussel',
		'phone' : '02/219.39.33',
		'mail' : null,
		'body' : 'Je kan ook schotels afhalen.'
	},
	{
		'name' : 'L\'Ultime Atome',
		'lng' : '4.3643697',
		'lat' : '50.8358645',
		'website' : null,
		'street' : 'Sint Bonifaasstraat 14',
		'postal' : '1050',
		'city' : 'Elsene',
		'phone' : '02/511.13.67',
		'mail' : null,
		'body' : 'Gespecialiseerd in broodjes, pasta’s, gebakjes, ijs en milkshakes. '
	},
	{
		'name' : 'L\'Ultime Atome',
		'lng' : '4.3643697',
		'lat' : '50.8358645',
		'website' : null,
		'street' : 'Sint Bonifaasstraat 14',
		'postal' : '1050',
		'city' : 'Elsene',
		'phone' : '02/511.13.67',
		'mail' : null,
		'body' : 'Gespecialiseerd in broodjes, pasta’s, gebakjes, ijs en milkshakes. '
	},
	{
		'name' : 'La Terrasse',
		'lng' : '4.3981712',
		'lat' : '50.8389158',
		'website' : 'http://www.brasserielaterrasse.be',
		'street' : 'Keltenlaan 1',
		'postal' : '1040',
		'city' : 'Etterbeek',
		'phone' : '02/732.28.51',
		'mail' : 'info@brasserielaterrasse.be',
		'body' : null
	},
	{
		'name' : 'Bacchus',
		'lng' : '3.4179437',
		'lat' : '51.0554615',
		'website' : 'http://www.restaurantbacchus.be',
		'street' : 'Aalterweg 10',
		'postal' : '9880',
		'city' : 'Poeke',
		'phone' : '09/375.04.85',
		'mail' : 'restaurantbacchus@mail.be',
		'body' : null
	},
	{
		'name' : 'Mimosa',
		'lng' : '3.7303522',
		'lat' : '51.060149',
		'website' : 'http://www.mimosagent.be',
		'street' : 'Kongostraat 2',
		'postal' : '9000',
		'city' : 'Gent',
		'phone' : '09/233.55.20',
		'mail' : null,
		'body' : 'Onder meer vegetarische couscous  tabouleh. Vlees wordt altijd apart bereid. Ook meeneem.'
	},
	{
		'name' : 'El Pincho',
		'lng' : '3.7308484',
		'lat' : '51.0498628',
		'website' : null,
		'street' : 'Brabantdam 82',
		'postal' : '9000',
		'city' : 'Gent',
		'phone' : '09/224.44.02',
		'mail' : null,
		'body' : null
	},
	{
		'name' : 'Kanazawa',
		'lng' : '3.7527322',
		'lat' : '51.0157344',
		'website' : 'http://www.kanazawa.be',
		'street' : 'Hundelgemsesteenweg 242',
		'postal' : '9820',
		'city' : 'Schelderode',
		'phone' : '09/231.08.82',
		'mail' : null,
		'body' : 'De gasten zitten samen rond een kookeiland waar een teppanyaki-kok de gerechten op spectaculaire wijze bereidt. Er is een vegetarisch menu.'
	},
	{
		'name' : 'Witte olifant-Chang Phuak',
		'lng' : '3.7178597',
		'lat' : '51.052216',
		'website' : 'http://www.witte-olifant-changphuak.be',
		'street' : 'Zwarte zusterstraat 32',
		'postal' : '9000',
		'city' : 'Gent',
		'phone' : '09/222.22.24',
		'mail' : 'bbooaazz@skynet.be ',
		'body' : 'Uitgebreide keuze aan vegetarische gerechten (op de kaart lazen wij \'vegetarische hoofdgevechten\', maar laat dat u niet afschrikken.)\r\nBudgetvriendelijk, ook meeneem en volledig rookvrij.\r\nvrijdagmiddag buffet à 9,50 euro\r\niedere 1ste zondagavond buffet à 15 euro'
	},
	{
		'name' : 'Quetzal -  De chocoladebar',
		'lng' : '3.7265132',
		'lat' : '51.0446429',
		'website' : 'http://www.quetzal.be',
		'street' : 'Sint-Pietersnieuwstraat 99',
		'postal' : '9000',
		'city' : 'Gent',
		'phone' : '09/224.15.27',
		'mail' : 'info@chocoladebar.be',
		'body' : 'Keuze te over en alles wordt dagelijks vers bereid. Heb je het liever wat gezonder of minder zoet, dan vind je zeker je gading in het assortiment smoothies of in de uitgebreide koffie- en theekaart. '
	},
	{
		'name' : 'Indian Tandoori',
		'lng' : '3.2263332',
		'lat' : '51.2027972',
		'website' : 'http://www.indiantandoori.be',
		'street' : 'Oude Gentweg 11',
		'postal' : '8000',
		'city' : 'Brugge',
		'phone' : '050/34.58.26',
		'mail' : 'info@indiantandoori.be',
		'body' : 'Indiase keuken met ruime keuze in vegetarische gerechten. O.a. gekruide groenteschotel met gember (€ 10) en aubergines roergebakken met aardappeltjes (€ 11.50). Ook meeneem.'
	},
	{
		'name' : 'Basecamp',
		'lng' : '4.7007709',
		'lat' : '50.8784516',
		'website' : 'http://www.restaurantbasecamp.com',
		'street' : 'Naamsestraat 16',
		'postal' : '3000',
		'city' : 'Leuven',
		'phone' : '016/227491',
		'mail' : 'info@restaurantbasecamp.com',
		'body' : null
	},
	{
		'name' : 'Tiva',
		'lng' : '3.724583',
		'lat' : '51.0588266',
		'website' : 'http://www.tiva.be',
		'street' : 'Oudburg 43',
		'postal' : '9000',
		'city' : 'Gent',
		'phone' : '09/233.15.84 of 0478/76.66.95',
		'mail' : 'tivarestaurant@hotmail.com',
		'body' : 'Belgische Tapas gerechten. Drie vegetarische gerechten; onder meer falafel met napolitaanse saus en pasta met prei en quorn. De kaart wisselt om de zes weken.'
	},
	{
		'name' : 'Exki',
		'lng' : '4.4045829',
		'lat' : '51.2180264',
		'website' : 'http://www.exki.be',
		'street' : 'Wiegstraat 7-9',
		'postal' : '2000',
		'city' : 'Antwerpen',
		'phone' : '03/213.08.57',
		'mail' : 'wiegstraat@exki.be',
		'body' : null
	},
	{
		'name' : 'Exki',
		'lng' : '4.4045829',
		'lat' : '51.2180264',
		'website' : 'http://www.exki.be',
		'street' : 'Wiegstraat 7-9',
		'postal' : '2000',
		'city' : 'Antwerpen',
		'phone' : '03/213.08.57',
		'mail' : 'wiegstraat@exki.be',
		'body' : null
	},
	{
		'name' : 'De Reygaerd',
		'lng' : '2.7301677',
		'lat' : '51.0644991',
		'website' : 'http://www.dereygaerd.be',
		'street' : 'Reygaerddijkstraat 22',
		'postal' : '8630',
		'city' : 'Zoutenaaie',
		'phone' : '058/31.73.31',
		'mail' : 'info@dereygaerd.be',
		'body' : null
	},
	{
		'name' : 'Atlas Wereldkeuken',
		'lng' : '4.4775535',
		'lat' : '51.0261981',
		'website' : 'http://atlaswereldkeuken.be',
		'street' : 'Nauwstraat 4',
		'postal' : '2800',
		'city' : 'Walem',
		'phone' : '015/27.56.27',
		'mail' : 'atlaswereldkeuken@telenet.be',
		'body' : null
	},
	{
		'name' : 'The Lounge',
		'lng' : '3.7290914',
		'lat' : '51.0678307',
		'website' : 'http://www.thelounge-gent.be',
		'street' : 'The Lounge',
		'postal' : '9000',
		'city' : 'Gent',
		'phone' : '09/225.34.09',
		'mail' : null,
		'body' : null
	},